"Address","lon","lat","nr_5km","dist_1","area_voronoi","eventDate"
"105 Station Rd Cnr Powers St, Seven Hills NSW 2147",150.94482,-33.774473,42,612.138932780493,0.000120219406500079,"2016-6-1"
"Yangan Avenue, Beresfield NSW 2322",151.6291077,-32.8090705,9,839.939048869821,0.00362214536100068,"2016-6-1"
"M1 Southbound, Wyong NSW 2259",151.4053935,-33.2540903,9,342.585633284487,0.00433544725949998,"2016-6-1"
"741 George St, Windsor South NSW 2756",150.7839799,-33.6387055,11,248.313836561424,0.000859985452999824,"2016-6-1"
"1285-1289 Canterbury Rd Cnr Duncan, Punchbowl NSW 2196",151.0596341,-33.9314597,66,1135.62265116741,0.000265470677000056,"2016-6-1"
"150-152 Pacific Hwy, Tuggerah NSW 2259",151.4205961,-33.2992758,13,34.6782127452117,7.62967590000188e-05,"2016-6-1"
"2 Bridges Rd Cnr Newbridge Rd, Moorebank NSW 2170",150.93273,-33.9283774,41,885.974526565336,0.000183390868999895,"2016-6-1"
"637 Forest Road, Peakhurst NSW 2210",151.0687546,-33.9583766,53,118.582734959548,3.93568510000142e-05,"2016-6-1"
"111-121 Falcon St, Crows Nest NSW 2065",151.2060304,-33.8286801,27,951.666703527511,0.000555759036500117,"2016-6-1"
"103 Sydemham Road, Marrickville NSW 2204",151.163393,-33.9101975,59,350.244542414951,6.2694858499934e-05,"2016-6-1"
"6-8 Queen Elizabeth Dr, Armidale NSW 2350",151.6511207,-30.5035046,12,611.959649812868,0.00308132799450254,"2016-6-1"
"16-38 Military Rd, Neutral Bay NSW 2089",151.2162998,-33.8290796,22,290.238371800004,0.000228888530999918,"2016-6-1"
"Menai Rd Cnr Carter Rd, Menai NSW 2234",151.0152707,-34.0179087,5,4129.14163337119,0.00434606631150044,"2016-6-1"
"172-174 Princes Highway, Albion Park Rail NSW 2527",150.7955406,-34.56128,13,311.429597806057,0.000158860866999933,"2016-6-1"
"66-68 Cessnock Road, Neath NSW 2326",151.4141312,-32.826152,8,1989.98783371056,0.00179554973849982,"2016-6-1"
"237 Union St Cnr Three Chain Rd, Lismore South NSW 2480",153.2647394,-28.8204918,19,932.137542547845,0.00748710227350127,"2016-6-1"
"351-357 Stoney Creek Rd, Kingsgrove NSW 2208",151.0924768,-33.9513534,69,985.964751359543,0.000213202199000011,"2016-6-1"
"96 Centre St, Casino NSW 2470",153.0451922,-28.8654807,12,100.160790534545,1.78674475000136e-05,"2016-6-1"
"Castlereagh Rd Cnr Lugard St, Penrith NSW 2750",150.692474,-33.7405119,21,264.61251509939,0.000989232067999681,"2016-6-1"
"917-923 Old Northern Rd, Dural NSW 2158",151.0287492,-33.6831208,9,1259.58959070941,0.00154418016549992,"2016-6-1"
"38 Abbott Rd, Seven Hills NSW 2147",150.9548624,-33.7668381,37,431.752026316019,0.000205359532999717,"2016-6-1"
"1163 Mamre Rd, Kemps Creek NSW 2178",150.7966309,-33.8696993,4,1036.24255331975,0.00239532151700074,"2016-6-1"
"66 Oxford St, Gateshead NSW 2290",151.6835265,-32.9783366,23,1306.2594150169,0.000269261100838692,"2016-6-1"
"244A Beardy Street, Armidale NSW 2350",151.6624053,-30.5127657,12,673.838375442745,0.000151663512999918,"2016-6-1"
"153 Coreen Ave Cnr Castlereagh Rd, Penrith NSW 2750",150.6926654,-33.7428922,21,264.61251509939,0.000110124433999914,"2016-6-1"
"972 Hume Highway, Bass Hill NSW 2197",150.9912877,-33.8961497,57,351.764493176736,0.000229769837000076,"2016-6-1"
"228 Edgar Street, Condell Park NSW 2200",151.0125837,-33.9224335,46,696.858881815806,0.000146348118000081,"2016-6-1"
"740 Hume Highway, Yagoona NSW 2199",151.0114633,-33.9048797,52,275.790893409098,0.000124367944500075,"2016-6-1"
"272 Princes Highway, Bomaderry NSW 2541",150.5951316,-34.8405552,9,260.869155933414,0.000139851640999988,"2016-6-1"
"19 The Northern Rd, Luddenham NSW 2745",150.6900898,-33.8740734,3,1084.30887548072,0.0031500260284999,"2016-6-1"
"125 Dora Street, Morisset NSW 2264",151.4815843,-33.1116066,8,641.214804314096,0.000293361514499876,"2016-6-1"
"58 North Street, Nowra NSW 2541",150.6010854,-34.8723566,14,476.466116574751,0.000322083953499905,"2016-6-1"
"1 Dunn Road, Smeaton Grange NSW 2567",150.7563412,-34.0327499,11,1492.01912642267,0.000359419911999939,"2016-6-1"
"27-29 Amy Steet, Regents Park NSW 2143",151.0268751,-33.8837053,61,510.795420419895,0.000176285119499888,"2016-6-1"
"155-165 Chanter St, Berrigan NSW 2712",145.8015557,-35.6557616,2,1653.38858807112,0.034917356983002,"2016-6-1"
"1190 Old Windsor Rd Near Miami St (, Parklea NSW 2768",150.9386529,-33.7234674,19,1689.50424607465,0.000485171725000025,"2016-6-1"
"17 Mount St, Mount Druitt NSW 2770",150.8244953,-33.7656167,22,231.487515627106,9.80441645001076e-05,"2016-6-1"
"36 Mulgoa Road, Regentville NSW 2745",150.6660226,-33.7750402,18,1084.58156781856,0.000492017083000158,"2016-6-1"
"92 Mulgoa Road & Batt Street, Jamisontown NSW 2750",150.6795954,-33.7665561,20,504.649350753552,0.00026229548700031,"2016-6-1"
"35 Alison Road, Wyong NSW 2259",151.4211007,-33.2833934,14,443.200671115574,0.000464845371000445,"2016-6-1"
"481 Luxford Road, Shalvey NSW 2770",150.8052847,-33.729482,16,1034.34681517791,0.00121299517050027,"2016-6-1"
"3 Railway Pde, Kogarah NSW 2217",151.1326345,-33.9624658,50,426.92792546443,9.13141274998601e-05,"2016-6-1"
"Fairlight St Cnr Ramsay Rd, Five Dock NSW 2046",151.1322258,-33.8698807,54,591.188230853797,0.00011577519900003,"2016-6-1"
"Lot 6 Star Court, Cambridge Park NSW 2747",150.7182201,-33.7403997,18,1690.84332603514,0.000868019845500339,"2016-6-1"
"59-63 Tudor St Cnr Gordon Ave, Hamilton NSW 2303",151.7507442,-32.9249577,28,475.984537165768,9.48769025000018e-05,"2016-6-1"
"Cnr Dunheved Rd & Henry Lawson Dr, Werrington NSW 2747",150.7389301,-33.7458349,22,396.247864588394,0.0004778483985,"2016-6-1"
"166 John St Cnr Gladstone St, Cabramatta NSW 2166",150.9285354,-33.894009,59,601.847957069678,9.4378132499783e-05,"2016-6-1"
"Wordoo St Cnr Forrester St, St Marys NSW 2760",150.7752213,-33.7529885,21,998.575308047445,0.000439828180499946,"2016-6-1"
"31 Princes Hwy, Albion Park Rail NSW 2527",150.7880686,-34.5518147,13,247.327251489134,0.00019426078799994,"2016-6-1"
"72-74 Clinton Street, Goulburn NSW 2580",149.7135261,-34.7572892,17,52.6520891335814,2.1954942000044e-05,"2016-6-1"
"280-286 Canley Vale Rd, Canley Heights NSW 2166",150.9241242,-33.8838593,56,416.712391161159,0.000133631459999977,"2016-6-1"
"1370-1380 Camden Valley Hwy, Leppington NSW 2179",150.818266,-33.963319,9,425.062247270252,0.000787469156500241,"2016-6-1"
"157 Orlando St, Coffs Harbour NSW 2450",153.1307995,-30.2896906,9,683.283927761012,0.000139650123000012,"2016-6-1"
"Cnr. Glenmore Parkway & Main Street, Glenmore Park NSW 2745",150.668863,-33.789914,11,1670.6227086835,0.00115223453100015,"2016-6-1"
"1618 Canterbury Road (Cnr Gow Street), Punchbowl NSW 2196",151.039866,-33.9342587,59,165.474446304499,0.000130261122500082,"2016-6-1"
"625 Pittwater Road, Dee Why NSW 2099",151.282715,-33.7557896,21,881.510183223125,0.000163242115000038,"2016-6-1"
"163 The Boulevarde (Cnr Pery St), Fairfield Heights NSW 2165",150.9378262,-33.866546,55,619.392423673417,0.000119132336499919,"2016-6-1"
"262 Byron Street, Inverell NSW 2360",151.1180885,-29.7688118,9,323.120307639817,4.11890444999376e-05,"2016-6-1"
"283 Manns Rd Cnr Merinee Rd, Gosford West NSW 2250",151.3251074,-33.4167192,10,1175.84914612627,0.00126461086300001,"2016-6-1"
"1/155 Prospect Highway, Seven Hills NSW 2147",150.9425493,-33.7692902,40,32.3162746234486,7.63976799999001e-06,"2016-6-1"
"1/158 Auburn Rd, Birrong NSW 2143",151.0215165,-33.897395,56,1186.84760386982,0.000193804898999837,"2016-6-1"
"126-128 Old Bathurst Road & Corner Russell Street, Emu Plains NSW 2750",150.6547009,-33.7429882,16,115.893770719461,0.000844802859500077,"2016-6-1"
"234 Hamilton Road, Fairfield West NSW 2165",150.9372457,-33.8721091,55,619.392423673417,0.00011001079449999,"2016-6-1"
"3 Metella Road & Corner Cornelia Road, Toongabbie NSW 2146",150.9464182,-33.7868908,42,1178.43765664599,0.000207699417499861,"2016-6-1"
"217 Wentworth Avenue (Corner Bungaree Road), Pendle Hill NSW 2145",150.9578445,-33.8018388,43,248.324574211342,0.000152530449500095,"2016-6-1"
"151 Prospect Hwy & Corner Station Road, Seven Hills NSW 2147",150.9427322,-33.7690421,39,32.3162746234486,3.10915034999504e-05,"2016-6-1"
"49-51 Great Western Highway, Emu Plains NSW 2750",150.6762172,-33.7465302,20,1525.18196583113,0.000502797219500199,"2016-6-1"
"2 Alison Rd, Randwick NSW 2031",151.2319938,-33.9065628,48,261.251953750658,0.000128365354693413,"2016-6-1"
"73-75 Dawson St, Lismore NSW 2480",153.2809598,-28.8089415,20,97.4046682999488,1.60836740000148e-05,"2016-6-1"
"161 Maybe Street, Bombala NSW 2632",149.237458,-36.9124026,2,493.736732278234,0.10472513958001,"2016-6-1"
"Docker St Cnr Edward St, Wagga Wagga NSW 2650",147.3567697,-35.1155881,20,43.8104113978199,2.10803404999746e-05,"2016-6-1"
"487 Princes Hwy, Kirrawee NSW 2232",151.0808877,-34.029236,20,263.20918049332,5.24039739999205e-05,"2016-6-1"
"57 Winnima Way, Berkeley NSW 2056",150.8462221,-34.4801808,17,725.902411745221,0.000858521788000465,"2016-6-1"
"12 Verner Street, Goulburn NSW 2580",149.7176653,-34.7582597,17,344.897180194985,0.000315562898999936,"2016-6-1"
"56 Leabons Lane (Corner Blacktown Road), Blacktown East NSW 2148",150.9231685,-33.7818566,40,429.320038781016,0.000152967505500115,"2016-6-1"
"Corner Richmond Road & Dublin Street, Plumpton NSW 2761",145.0065616,-37.8194848,1,8097.36465686332,NA,"2016-6-1"
"54 - 56 Windsor Road, Kellyville NSW 2155",150.9569658,-33.7122416,11,193.176040634782,0.000159381739000358,"2016-6-1"
"255 -257 Old Northern Road, Castle Hill NSW 2154",151.0035815,-33.734803,17,3027.81937131601,0.00146012094800003,"2016-6-1"
"400 Luxford Road, Lethbridge Park NSW 2770",150.7983694,-33.7368018,18,1034.34681517791,0.000772203685999826,"2016-6-1"
"240 Prospect Highway, Seven Hills NSW 2147",150.9332713,-33.7762584,39,1087.90055801578,0.000168942103999992,"2016-6-1"
"132 Old Bathurst Road, Emu Plains NSW 2750",150.6559515,-33.7429741,16,115.893770719461,0.000589142580500157,"2016-6-1"
"756 Pittwater Rd (Cnr West St), Brookvale NSW 2100",151.2762736,-33.7616389,20,162.459117180032,2.73964440000457e-05,"2016-6-1"
"283 Great Western Hwy (Cnr Russell St), Emu Plains NSW 2750",150.6530651,-33.7537447,18,563.905708281726,0.000429761080500062,"2016-6-1"
"303 Tweed Valley Way, South Murwillumbah NSW 2484",153.4017918,-28.330914,8,747.124854011301,0.00182673992750063,"2016-6-1"
"156 Pacific Highway, Watanobbi NSW 2259",151.429255,-33.2743601,15,922.841424585744,0.000385285439999601,"2016-6-1"
"30 Henry Street, Penrith NSW 2750",150.7045931,-33.7541623,21,750.214240361144,0.000176299704500039,"2016-6-1"
"300 Sandgate Road, Shortland NSW 2307",151.6955022,-32.8861683,26,144.117600906867,0.000382457760999873,"2016-6-1"
"393 Hillsborough Road (Corner Macquarie Road), Warners Bay NSW 2282",151.6543842,-32.9659076,26,1119.60036387689,NA,"2016-6-1"
"603-611 Anzac Pde Cnr Snape St, Kingsford NSW 2032",151.237114,-33.934352,37,1030.2721204012,NA,"2016-6-1"
"86-98 Princes Hwy Cnr Central Rd, Unanderra NSW 2526",150.8451819,-34.4541917,19,43.4755627041816,0.000834800131000405,"2016-6-1"
"139-141 Otho St Cnr Glen Innes Rd, Inverell NSW 2360",151.1145699,-29.7781942,9,99.187726061917,0.000867948040000124,"2016-6-1"
"127 Loftus Ave, Loftus NSW 2232",151.0507778,-34.0456337,13,1828.26027735031,0.00188285345684996,"2016-6-1"
"99 Tweed Coast Rd, Hastings Point NSW 2489",153.5725599,-28.3692437,2,1467.00112933415,0.00433986846849058,"2016-6-1"
"289 Cessnock Road, Abermain NSW 2326",151.4260359,-32.8112882,7,1672.83466280266,0.00336479309099967,"2016-6-1"
"34 Wharf St (Cnr Frances St), Tweed Heads NSW 2485",153.5432378,-28.1732793,7,113.130911726291,NA,"2016-6-1"
"397 Pacific Highway, Belmont NSW 2280",151.6611819,-33.0327604,8,55.3820597520371,0.000334387331887163,"2016-6-1"
"71 Minjungbal Dr, Tweed Heads South NSW 2486",153.542089,-28.1946654,9,236.853718357928,NA,"2016-6-1"
"41 - 43 Third Avenue, Blacktown NSW 2148",150.9079574,-33.7649347,37,524.220380512711,0.000149036965499986,"2016-6-1"
"44 Foster St, Lake Cargelligo NSW 2672",146.3700727,-33.299256,3,198.047956726917,0.217753872492995,"2016-6-1"
"27 Woodville Rd, Granville NSW 2142",151.0040802,-33.8309899,50,650.893770217223,0.00010747940250008,"2016-6-1"
"2-4 Marsh St, Armidale NSW 2350",151.6726612,-30.5032837,12,1034.90262577541,0.0722043678119995,"2016-6-1"
"142 Marsh St Cnr Barney St, Armidale NSW 2350",151.6676611,-30.5168864,12,479.392546332923,0.0720973044799994,"2016-6-1"
"New England Highway, Armidale NSW 2350",151.6391224,-30.5043366,12,813.022576047125,0.0414004085599996,"2016-6-1"
"238 Cumberland Rd, Auburn NSW 2144",151.023111,-33.8641186,59,942.344121377483,0.000200246009999816,"2016-6-1"
"7-9 Newbridge Road, Chipping Norton NSW 2170",150.9772006,-33.9283919,41,1220.72243679546,0.00039781332899989,"2016-6-1"
"940 Pittwater Road & Hawkesbury Avenue, Dee Why NSW 2099",151.2901723,-33.7491481,23,422.210357290696,8.14923925000279e-05,"2016-6-1"
"88 - 92 Clinton Street, Goulburn NSW 2580",149.7122908,-34.7565393,17,119.835735524042,1.231218200001e-05,"2016-6-1"
"39-41 Port Stephens Rd (Cnr Bourke St), Raymond Terrace NSW 2324",151.7441304,-32.7611857,7,478.156595566649,0.005085810334499,"2016-6-1"
"145 - 147 Hoskins Street, Temora NSW 2666",147.5337162,-34.4457095,5,284.268967762181,8.80347534999004e-05,"2016-6-1"
"186 Pacific Highway, Tuggerah NSW 2259",151.4223958,-33.2941545,15,124.068369257268,0.000269881751500187,"2016-6-1"
"24-26 Gavenlock Road, Tuggerah NSW 2259",151.4148602,-33.3091958,12,597.988191465475,0.00134103828050015,"2016-6-1"
"693 Old Princes Highway (Retank Reopens 23 Jun'16), Sutherland NSW 2232",151.0589016,-34.0297891,15,134.869902703805,0.000121884474000008,"2016-6-1"
"53 Durham St, Bathurst NSW 2795",149.5848871,-33.4168435,12,63.5436226983158,0.00013579387250028,"2016-6-1"
"91-93 Elsham Ave Leewood Estate, Orange NSW 2800",149.101051,-33.285294,15,411.723073446127,4.06577434999626e-05,"2016-6-1"
"68 Goldsmith St Cnr Bourke St, Goulburn NSW 2580",149.719228,-34.7505216,17,216.688329880733,0.00236979711550145,"2016-6-1"
"431 The Entrance Rd, Long Jetty NSW 2261",151.4827508,-33.3601584,9,230.688177094579,0.00021867288100021,"2016-6-1"
"Kent St Cnr Kathleen St, Tamworth NSW 2340",150.913092,-31.1039919,19,1003.79372897821,0.000165972624000063,"2016-6-1"
"Cnr Pennant Hills Rd & Parkes St, Thornleigh NSW 2120",151.0527333,-33.7767267,28,142.633859846258,0.000205664493999927,"2016-6-1"
"712 Pennant Hills Road, Carlingford NSW 2118",151.0474278,-33.7635765,21,984.379729848399,0.000168571999000087,"2016-6-1"
"435 Church Street, Parramatta NSW 2150",151.005607,-33.804991,47,996.603549902219,0.000277039520499675,"2016-6-1"
"Cnr George St and Burdett St, Hornsby NSW 2077",151.0993995,-33.7023572,17,537.612599248412,0.000302278141000119,"2016-6-1"
"175 Richmond Road, Blacktown NSW 2148",150.8917648,-33.7554983,32,1356.65307363337,0.00032206200750012,"2016-6-1"
"363 Vardys Road, Kings Park NSW 2148",150.9068804,-33.7466,30,971.108906428917,0.000253430868499859,"2016-6-1"
"180 Reservoir Road, Arndell Park NSW 2148",150.8971454,-33.796756,24,735.729601550484,0.000262519067500192,"2016-6-1"
"62 Walters Road, Blacktown NSW 2148",150.8949673,-33.7759669,31,895.039945756413,0.000233104993499923,"2016-6-1"
"369 Pacific Highway, Heatherbrae NSW 2324",151.7249819,-32.7911326,6,1050.24538221975,0.0012168097099993,"2016-6-1"
"662 Main Rd Cnr Turnbull St, Edgeworth NSW 2285",151.627805,-32.9255818,15,652.248917085363,0.000227763727999881,"2016-6-1"
"148 Bridges Rd, New Lambton NSW 2305",151.7137745,-32.9327832,35,440.943165226732,0.000187312825499926,"2016-6-1"
"67 Shepherds Dr Cnr Macquarie Dr, Cherrybrook NSW 2126",151.044013,-33.7209745,18,2310.48190961384,0.000930489606499411,"2016-6-1"
"80-84 Campbell Street, Moruya NSW 2537",150.0823744,-35.9120161,4,97.7709540865281,0.000331877619499978,"2016-6-1"
"86 Cartwright Ave Cnr Woodward Cres, Miller NSW 2168",150.8827692,-33.9188409,43,1045.74818451113,0.000292211095000022,"2016-6-1"
"17 Great Western Hwy, Kelso NSW 2795",149.602254,-33.4186283,13,359.426322350315,0.0005824069084995,"2016-6-1"
"4467 Gywdir Highway, Jackadgery NSW 2460",152.5515656,-29.5768518,1,37129.9944835361,0.3478198923575,"2016-6-1"
"360 Flushcombe Road, Prospect NSW 2148",150.9050808,-33.7964323,35,113.394793760866,0.000408207924000146,"2016-6-1"
"1004 Botany Rd., Mascot NSW 2020",151.1936435,-33.9327122,53,501.233130322394,0.000382425118500073,"2016-6-1"
"315 Auburn St Cnr Bradley St, Goulburn NSW 2580",149.7233715,-34.7493998,17,399.288519630485,0.000250196845499981,"2016-6-1"
"13-15 Pacific Hwy Cnr Costa Ave, Charmhaven NSW 2263",151.4974539,-33.2411496,8,1046.15664445557,0.000833627264499651,"2016-6-1"
"436 Wagga Rd Cnr Dick Rd, Lavington NSW 2641",146.9702512,-36.0351863,8,102.542221611724,0.00560742602999934,"2016-6-1"
"41-43 Epping Rd Cnr Wicks Rd, North Ryde NSW 2113",151.1312369,-33.7913919,38,512.087386631357,0.00025587064600007,"2016-6-1"
"6 Rudd Rd, Leumeah NSW 2560",150.8299662,-34.0539028,21,1218.03552246328,0.000449371171999995,"2016-6-1"
"Cobra St Cnr Brisbane St, Dubbo NSW 2830",148.6146933,-32.2550833,14,195.759519275748,9.97355679999572e-05,"2016-6-1"
"79 Union Rd, Albury North NSW 2640",146.948833,-36.0549231,15,1179.95255694043,0.000548728225500012,"2016-6-1"
"117 Seven Hills Rd, Baulkham Hills NSW 2153",150.9750732,-33.7613952,25,108.134449360761,0.000273712241000128,"2016-6-1"
"736-742 Main Road, Edgeworth NSW 2285",151.6196902,-32.9245658,12,179.484548190835,7.73830894999894e-05,"2016-6-1"
"74 Bentinck Street (Cnr Russell), Bathurst NSW 2795",149.5817694,-33.4203497,12,478.544385820533,0.000117224182000108,"2016-6-1"
"64-68 Sydney Rd, Kelso NSW 2795",149.606112,-33.4184418,13,166.885492589788,0.000839624770999751,"2016-6-1"
"503 Lake Road, Argenton NSW 2284",151.6307282,-32.9351936,19,1100.48090243652,0.000227305650000094,"2016-6-1"
"745 Main Road, Edgeworth NSW 2285",151.6212363,-32.9236072,15,179.484548190835,0.000499342277499524,"2016-6-1"
"40 Richardson Rd, Raymond Terrace NSW 2324",151.7628779,-32.7559273,5,1398.81485080666,0.0103757875579946,"2016-6-1"
"90-94 Queen Street (Cnr Broughton Street), Campbelltown NSW 2560",150.8173509,-34.0636095,22,398.087798356751,0.000125937748500009,"2016-6-1"
"5885 Tweed ValleyWay, Mooball NSW 2483",153.4916218,-28.4418108,2,1607.81479019174,0.00888824235699875,"2016-6-1"
"26 Summerland Way, Kyogle NSW 2474",153.0038475,-28.6181058,2,3928.3829851284,0.0380636125010005,"2016-6-1"
"352-360 Clarinda St Cnr Bushman St, Parkes NSW 2870",148.1737191,-33.133229,4,149.428019820615,0.0456611553334975,"2016-6-1"
"68 Harold St, Macquarie Fields NSW 2564",150.8934369,-33.9855597,17,53.0390196910406,0.00150651559600012,"2016-6-1"
"636-644 Woodville Rd Cnr Orchardlei, Old Guildford NSW 2161",150.9881451,-33.8665036,68,56.189951679977,5.84491720000943e-05,"2016-6-1"
"50 Bells Line Of Rd Cnr Terrace Rd, North Richmond NSW 2754",150.7199945,-33.5799748,6,231.251778767024,0.000576720333999846,"2016-6-1"
"55 King St, Warners Bay NSW 2282",151.6475783,-32.9742143,25,261.609393240323,NA,"2016-6-1"
"19-25 Merimbula Drive, Merimbula NSW 2548",149.9089176,-36.8875785,3,2663.5340954977,0.0035212037282956,"2016-6-1"
"81 Pacific Hwy, Charlestown NSW 2290",151.6955192,-32.9671135,25,93.0348787584571,0.00014119684699997,"2016-6-1"
"98 March St Cnr East Market St, Richmond NSW 2753",150.7515394,-33.599351,7,3170.4811305261,0.00190914817199975,"2016-6-1"
"5-7 Northwood Rd, Longueville NSW 2066",151.1724645,-33.8242994,35,24.8747156614676,5.05632730000087e-05,"2016-6-1"
"572 Pacific Hwy, Chatswood NSW 2067",151.178876,-33.8037004,32,768.321796638631,0.000153793132500087,"2016-6-1"
"Dean St Cnr Creek St, Albury NSW 2640",146.9149201,-36.0806519,12,755.957289300826,0.00398891378162388,"2016-6-1"
"354 Corner Flushcombe Road & Myrtle Street, Blacktown NSW 2148",150.9049365,-33.7954171,36,113.394793760866,0.000136374672999899,"2016-6-1"
"115 Sacville St, Fairfield NSW 2165",150.9452203,-33.8727231,53,63.7718140381872,4.44728450000209e-05,"2016-6-1"
"Stockland Drive (Stockland Shopping Centre), Glendale NSW 2285",151.6444948,-32.9336523,20,966.023244122106,0.000220620321722751,"2016-6-1"
"217-219 Seven Hills Road, Baulkham Hills NSW 2153",150.963514,-33.7555124,31,1179.89645427805,0.000315539120999921,"2016-6-1"
"180 Sydney Road, Kelso NSW 2795",149.6194869,-33.4189839,13,1097.92472125397,0.00435295397350252,"2016-6-1"
"76 Rodd Rd., Canowindra NSW 2804",148.6677098,-33.5613445,2,196.368434411071,0.0333475932565037,"2016-6-1"
"1509-1511 Pittwater Rd, Narrabeen NSW 2101",151.2969397,-33.704651,10,366.008133230147,0.000746058759999865,"2016-6-1"
"516 Punchbowl Rd Cnr Wangee Rd, Lakemba NSW 2195",151.073278,-33.9112209,60,498.821397136436,6.06127284999582e-05,"2016-6-1"
"144 Parramatta Rd Cnr Bold Street, Granville NSW 2142",151.011088,-33.830508,54,637.612881894208,0.000146708981499964,"2016-6-1"
"131 Pennant Hills Rd Cnr Bettington, Carlingford NSW 2118",151.0278917,-33.787648,32,1397.29940412932,0.000328268474000287,"2016-6-1"
"Narellan Rd Cnr Maxwell Pl, Narellan NSW 2567",150.7427511,-34.0400246,11,679.928781677989,0.000344403691499836,"2016-6-1"
"406 Pacific Hwy Cnr Floraville Rd, Belmont North NSW 2280",151.6623539,-33.0247783,12,282.840919794964,9.26481181446943e-05,"2016-6-1"
"96-98 Kennedy Dr Cnr Barrett St, Tweed Heads West NSW 2485",153.5230014,-28.1871503,8,2050.8900337744,0.00345503825362759,"2016-6-1"
"216 Newbridge Rd, Moorebank NSW 2170",150.955237,-33.9292756,36,92.039902768949,0.000158647785499896,"2016-6-1"
"228 Comur St, Yass NSW 2582",148.9138907,-34.8445805,2,477.436542453858,0.00547520639400055,"2016-6-1"
"272-278 Woodville Road, Guildford NSW 2161",150.9968792,-33.8481613,58,285.199713297961,4.56099660000253e-05,"2016-6-1"
"348 Blaxcell Street, Granville NSW 2142",151.0071292,-33.857166,62,734.690783550629,0.0001299548380001,"2016-6-1"
"37 Woodhouse Dr Cnr Wickfield St, Ambarvale NSW 2560",150.8019511,-34.0844365,14,778.554719345957,0.000197611757000075,"2016-6-1"
"114 Taren Point Rd, Taren Point NSW 2229",151.1219291,-34.0206476,30,46.6748476047781,7.58879425000893e-05,"2016-6-1"
"414-416 Princes Hwy, Sylvania Heights NSW 2224",151.0894101,-34.0236599,24,737.994159259959,0.000279483947000035,"2016-6-1"
"169-173 Malabar Rd, Coogee South NSW 2034",151.2574183,-33.9323506,29,1477.92096136583,NA,"2016-6-1"
"451 Nth Liverpool Rd, Bonnyrigg NSW 2177",150.857951,-33.8942831,24,275.052105583915,0.000465757835999853,"2016-6-1"
"334-336 PARRAMATTA Road, Homebush NSW 2140",151.0681389,-33.8581667,39,859.946656644673,0.00028301916200045,"2016-6-1"
"17 Forsyth Street, Wagga Wagga NSW 2650",147.3740649,-35.1142006,20,898.461581888393,0.000262518838000115,"2016-6-1"
"35 Woodville Road (cnr Alpha), Chester Hill NSW 2162",150.9887218,-33.8666623,69,56.189951679977,0.000149357581499864,"2016-6-1"
"150 Woodville Rd Cnr Merrylands Rd, Merrylands NSW 2160",150.9998892,-33.8384929,49,787.789281572699,7.95223200000429e-05,"2016-6-1"
"51-55 River Street, Maclean NSW 2463",153.2054879,-29.4460937,3,550.951100620179,0.0184765858699989,"2016-6-1"
"477-481 Port Hacking Rd, Lilli Pilli NSW 2229",151.1215625,-34.0524306,18,1298.316633921,NA,"2016-6-1"
"542 Princes Highway, Kirrawee NSW 2232",151.0760722,-34.0322173,20,454.47888549686,8.32761594999804e-05,"2016-6-1"
"529-531 Princes Highway & Bath Road, Kirrawee NSW 2232",145.31361,-38.027666,1,35535.3389641176,NA,"2016-6-1"
"397 Main Road (Corner Lowry Street), Cardiff NSW 2285",151.6562059,-32.9339267,25,815.05743289292,NA,"2016-6-1"
"100 Woolooware Rd, Woolooware NSW 2230",151.1408431,-34.052747,12,978.512145889408,NA,"2016-6-1"
"200-202 Pennant Hills Rd, Thornleigh NSW 2120",151.0834619,-33.7278414,21,343.345560340477,0.000197324677500053,"2016-6-1"
"358 Hoxton Park Rd, Prestons NSW 2170",150.8817251,-33.9282285,42,66.2958623875949,0.000120095786999915,"2016-6-1"
"236-238 Condamine St, Manly Vale NSW 2093",151.2673818,-33.785027,21,1136.35754983525,NA,"2016-6-1"
"532 Old Northern Road, Dural NSW 2158",151.0201585,-33.6934905,10,913.027676742019,0.000559010469500217,"2016-6-1"
"159 Imlay St, Eden NSW 2551",149.9044021,-37.063241,4,139.701350869321,0.0350373098778628,"2016-6-1"
"316 Camden Valley Way, Narellan NSW 2567",150.7354956,-34.0410694,12,259.4770210849,0.000189747928999819,"2016-6-1"
"110 Lane Cove Rd, Ryde NSW 2112",151.1137633,-33.8014733,33,728.259005717924,0.000110240578500062,"2016-6-1"
"Cnr Lennox & East Market Streets, Richmond NSW 2753",150.659035,-33.752755,19,563.905708281726,0.000206240208999993,"2016-6-1"
"157 Narellan Rd (Cnr Smeaton Grange Rd), Mount Annan NSW 2567",150.7602302,-34.0467975,13,292.127953164401,0.000350488203500078,"2016-6-1"
"337 West Street (Cnr Ocean Beach Road), Umina NSW 2257",151.3170285,-33.5210014,6,57.017294508904,0.00150976378999995,"2016-6-1"
"646 Hume Hwy, Casula NSW 2170",150.8934788,-33.9564132,30,821.328258906311,0.000310612923499931,"2016-6-1"
"269 Stewart Street, Bathurst NSW 2795",149.5681035,-33.4181477,13,136.384844351117,7.09659495002669e-05,"2016-6-1"
"37 Crystal St., Petersham NSW 2049",151.1587588,-33.8905087,68,202.505648403589,6.51146435000879e-05,"2016-6-1"
"155 The Entrance Rd, Erina NSW 2250",151.3793547,-33.4382424,15,608.449141261786,0.000480158498607298,"2016-6-1"
"43 Macquarie Road, Cardiff NSW 2285",151.6578283,-32.9411475,31,815.05743289292,NA,"2016-6-1"
"295-297 Merrylands Road (Corner Windsor Street), Merrylands NSW 2160",150.9851817,-33.8353294,56,627.326606686776,0.000135150899999816,"2016-6-1"
"87-89 Bradley St, Guyra NSW 2365",151.6722709,-30.2172781,3,1291.86811783395,0.0850907495210009,"2016-6-1"
"Parkes Road, Forbes NSW 2871",148.0198154,-33.3706051,7,1183.81620040174,0.0366984205804983,"2016-6-1"
"132 Allambie road, Allambie Heights NSW 2100",151.2496733,-33.7650913,28,1470.90109982743,0.000647933483000363,"2016-6-1"
"236-240 Georges Rive, Croydon Park NSW 2133",151.1052933,-33.8964106,77,200.03897973343,7.21079799997196e-05,"2016-6-1"
"229 Woodville Rd Cnr Lackey St, Merrylands NSW 2160",150.998349,-33.845478,55,327.243425177364,7.09689335000012e-05,"2016-6-1"
"278 Sandgate Road, Shortland NSW 2307",151.6952094,-32.8874441,27,144.117600906867,0.0002146834614999,"2016-6-1"
"321 Gardeners Rd, Rosebery NSW 2018",151.2060166,-33.9229812,56,335.814858991931,0.000134507718000016,"2016-6-1"
"287-295 Victoria Rd Cnr Stansell Rd, Gladesville NSW 2111",151.1268594,-33.8285504,42,792.201553110399,0.000298612775000007,"2016-6-1"
"100 Hastings River Dr, Port Macquarie NSW 2444",152.8824763,-31.4291012,7,1244.04914263914,0.0053440359005009,"2016-6-1"
"1344 Princes Highway, Heathcote NSW 2233",151.0071053,-34.0884651,5,74.9415702011553,0.00176823357658968,"2016-6-1"
"641 King Georges Rd Cnr Percival St, Penshurst NSW 2222",151.0892215,-33.9598182,61,391.194274109644,7.68067559999064e-05,"2016-6-1"
"334-336 Parramatta Rd, Homebush NSW 2140",151.0681389,-33.8581667,39,859.946656644673,0.00028301916200045,"2016-6-1"
"121 Victoria Rd Cnr Wellington St, Rozelle NSW 2039",151.1684539,-33.8625658,46,59.0660806148249,3.0898396999897e-05,"2016-6-1"
"797 Pennant Hills Rd, Carlingford NSW 2118",151.0516535,-33.7758099,28,142.633859846258,8.3070042000028e-05,"2016-6-1"
"164 Mona Vale Rd, St Ives NSW 2075",151.1570708,-33.7307893,16,64.148438097596,0.000146625443500013,"2016-6-1"
"1-3 Penrhyn Rd, Banksmeadow NSW 2019",151.2169409,-33.9644296,19,1373.3441826661,NA,"2016-6-1"
"1403 Princes Hwy, Heathcote NSW 2233",151.0037378,-34.0905951,5,390.392385289341,0.00693375074892196,"2016-6-1"
"21 Barsden St Cnr Cawdor Rd, Camden NSW 2570",150.6914516,-34.0581183,8,803.164694016818,0.00499922551050059,"2016-6-1"
"Pacific Hwy, Macksville NSW 2447",152.92012,-30.7244026,3,1282.65019010744,0.0249997520115004,"2016-6-1"
"146-148 Coogee Bay Rd, Coogee NSW 2034",151.2517478,-33.9198932,35,892.942780509711,NA,"2016-6-1"
"187 Wilson Road, Green Valley NSW 2168",150.8677334,-33.9074149,32,559.390418099479,0.000205032865999953,"2016-6-1"
"197 Princes Hwy, Ulladulla NSW 2539",150.4711849,-35.3661842,6,391.921948485959,NA,"2016-6-1"
"66 Parker Street (Cnr Copeland St), Penrith NSW 2747",150.7126403,-33.7549137,21,750.214240361144,0.000193406086000091,"2016-6-1"
"2 Rawson Road, GRANVILLE NSW 2142",151.0088363,-33.8636347,61,734.690783550629,0.000138801019500051,"2016-6-1"
"30 Bridge St, Epping NSW 2121",151.0797567,-33.7747403,38,2290.92311371119,0.000944452357499697,"2016-6-1"
"230 Shellharbour Rd, Warilla NSW 2528",150.8592904,-34.5570026,11,268.946516595427,0.000228885675999952,"2016-6-1"
"400 Lane Cove Road, North Ryde NSW 2113",151.1284429,-33.7850497,34,749.549578547425,0.000335633084999913,"2016-6-1"
"Lot 6 Princes Highway, Tomerong NSW 2540",150.5764997,-35.0500748,2,4597.86717664987,0.00933129020699982,"2016-6-1"
"1-7 Buchanan St, Murwillumbah NSW 2484",153.4093121,-28.3268979,8,117.179487721929,0.000225122657499184,"2016-6-1"
"75-77 King St Cnr Hoskins St, Warrawong NSW 2502",150.888815,-34.4903812,14,750.905721653278,0.00075947584899972,"2016-6-1"
"22 Treelands Dr, Yamba NSW 2464",153.3280129,-29.4270834,6,1475.03798654493,0.00703712699283407,"2016-6-1"
"656 The Entrance Rd, Wamberal NSW 2260",151.4375863,-33.4232852,4,1909.94831533351,0.00128341568752061,"2016-6-1"
"86 Pittwater Rd, Manly NSW 2095",151.285802,-33.7930688,18,315.729569457838,NA,"2016-6-1"
"342 Kanahooka Rd, Brownsville NSW 2530",150.8065126,-34.4859248,7,1380.23878753037,0.00368074056999943,"2016-6-1"
"1 Bay Street, Port Macquarie NSW 2444",152.8953403,-31.4270481,8,1031.99552968944,0.00476934567049802,"2016-6-1"
"243 Pennant Hills Road, Carlingford NSW 2118",151.0456304,-33.7829195,30,290.320320787484,0.000113283818500221,"2016-6-1"
"Lot 122 Dunheved Road, Werrington NSW 2747",150.7430506,-33.7467908,22,396.247864588394,0.000507447533500293,"2016-6-1"
"251 The Horsley Drive, Fairfield NSW 2165",150.9627967,-33.8713727,62,781.941271903791,0.00017023385000001,"2016-6-1"
"359 Pacific Highway, North Wyong NSW 2259",151.4427625,-33.2699812,16,1348.89243228517,0.0017485204070002,"2016-6-1"
"127 Great Western Highway (Corner Morley Avenue), Kingswood NSW 2747",150.726562,-33.7598725,23,196.534864802489,0.00017105771649997,"2016-6-1"
"15-19 Aspen Street, Penrith South NSW 2750",150.7107235,-33.7772772,20,1344.93295057367,0.00216660467050036,"2016-6-1"
"271A Victoria Road, Drummoyne NSW 2047",151.1515132,-33.8472151,40,1190.9402722155,0.000300215978999828,"2016-6-1"
"588 High Street, Penrith NSW 2751",150.6910665,-33.752464,22,1071.97003960008,0.000205876105499931,"2016-6-1"
"98 Kurrajong Avenue, Leeton NSW 2705",146.4089547,-34.5548039,5,133.064270141149,0.00477244659000069,"2016-6-1"
"37 Shellharbour Road, Lake Illawarra NSW 2528",150.8628794,-34.5450557,11,139.339213210969,0.000146280018999815,"2016-6-1"
"25-27 Unumgar Street, Woodenbong NSW 2476",152.6119202,-28.3892441,2,144.393196693312,0.050801692124899,"2016-6-1"
"29 Lord St, Port Macquarie NSW 2444",152.9170021,-31.4332543,9,1575.96506400413,0.00495246615147575,"2016-6-1"
"3-5 Windsor Rd, Kellyville NSW 2155",150.949569,-33.7098399,10,735.587491170843,0.000411662277499601,"2016-6-1"
"34 Links Ave, East Ballina NSW 2478",153.5830909,-28.8504697,7,44.0836302349251,0.00385369695442912,"2016-6-1"
"3723 Sturt Hwy, Gumly Gumly NSW 2652",147.4432111,-35.1358026,4,75.8475088686236,0.00672603646650102,"2016-6-1"
"603 Pacific Hwy, Mount Colah NSW 2079",151.1152181,-33.6703682,6,1700.9796178598,0.00205807361700039,"2016-6-1"
"191-195 Lyons Rd, Drummoyne NSW 2047",151.1460365,-33.8569905,46,1196.895492239,0.000307309848999975,"2016-6-1"
"116 Victoria Rd, Gladesville NSW 2111",151.1278707,-33.8356425,47,792.201553110399,0.000427459505999966,"2016-6-1"
"60-64 Windsor Parade, Dubbo NSW 2830",148.6313582,-32.2541007,14,203.551342470815,0.042443904255002,"2016-6-1"
"35 William Street, Bathurst NSW 2795",149.5829172,-33.4161438,12,138.474901642164,0.000597323547500682,"2016-6-1"
"Corner Shellharbour & Wattle Roads, Shellharbour NSW 2529",150.8687693,-34.578892,10,1758.6001754902,0.00410734281534815,"2016-6-1"
"2 - 4 Peterborough Avenue, Lake Illawarra NSW 2528",150.8636236,-34.5438601,11,149.188713799623,0.0005940087468448,"2016-6-1"
"66 Memorial Avenue, Woy Woy NSW 2256",151.3314559,-33.5070183,9,1338.98690757851,0.000896351632000054,"2016-6-1"
"185 Pitt Street (Cnr O'Neil St), Merrylands NSW 2160",150.9917832,-33.8340497,51,627.326606686776,0.00011739657500002,"2016-6-1"
"4 Lake Street, Windale NSW 2306",151.6831184,-32.99252,26,1034.87649635262,NA,"2016-6-1"
"59 The Crescent, Toongabbie NSW 2146",150.930009,-33.796242,37,837.678296488716,0.000371091491000071,"2016-6-1"
"574 Great Western Hwy, Werrington NSW 2747",150.7568748,-33.7680706,19,139.702118055622,0.000540391598499715,"2016-6-1"
"93-99 Addison Road, Marrickville NSW 2204",151.1645486,-33.9024308,71,387.700493310781,8.82677565000826e-05,"2016-6-1"
"New Lake Entrance Road (Shellharbour City Centre), Shellharbour NSW 2529",150.8309923,-34.5637313,18,1068.6671649731,0.000734092418500754,"2016-6-1"
"43-57 Shellharbour Rd (Warilla Grove Shopping Centre), Warilla NSW 2528",150.8624148,-34.5462515,11,139.339213210969,0.000293218555000079,"2016-6-1"
"14456 Newell Highway, Edgeroi NSW 2390",149.7997641,-30.1137781,1,20474.2612231324,0.130292680627,"2016-6-1"
"1609 Ocean Drive, Lake Cathie NSW 2445",152.8543807,-31.5529134,2,4430.4812783109,0.00815823003443291,"2016-6-1"
"115 Mann Street, Nambucca Heads NSW 2448",152.9886673,-30.6394311,2,1440.80395727745,0.00979102578543191,"2016-6-1"
"78 Great Western Hwy Cnr Ross St, Glenbrook NSW 2773",150.6214483,-33.7653915,9,2151.02682559743,0.00428697280849995,"2016-6-1"
"Barrier Highway, Cobar NSW 2835",145.8270441,-31.496806,4,735.879965329834,1.84137841648848,"2016-6-1"
"1715 Yass Valley Way, Yass NSW 2582",148.8825199,-34.8069633,1,5064.70072185886,0.103821671781001,"2016-6-1"
"104 Great Western Highway & Bennett Road, Colyton NSW 2760",150.7282045,-33.7609939,24,196.534864802489,0.00041813353399997,"2016-6-1"
"Lot 16 - 25 Great Western Highway, Eastern Creek NSW 2766",150.8416877,-33.785672,18,1152.03344264058,0.000553330861999937,"2016-6-1"
"12-14 Bolwarra Rd, Port Macquarie NSW 2444",152.8868569,-31.4505533,9,2144.8209233247,0.00373224515899991,"2016-6-1"
"Princes Hwy Cnr Deering St, Ulladulla NSW 2539",150.4741047,-35.3580202,6,553.994767405545,NA,"2016-6-1"
"360 Armidale Rd, East Tamworth NSW 2340",150.9613663,-31.1140768,18,2312.52407961874,0.00184564521900022,"2016-6-1"
"244-248 Windang Rd, Windang NSW 2528",150.8692034,-34.5274666,8,1889.32789956668,0.0019144546211899,"2016-6-1"
"214 The Entrance Road, Erina NSW 2250",151.3879072,-33.4349397,12,273.068289313334,NA,"2016-6-1"
"1042 Great Western Highway, Minchinbury NSW 2770",150.8286741,-33.7822092,17,126.212124369338,6.37480359998158e-05,"2016-6-1"
"276 Miller Road, Villawood NSW 2144",150.9920889,-33.8876146,58,949.613458058484,0.000205138555999813,"2016-6-1"
"53 Sydney Rd, Goulburn NSW 2580",149.7503468,-34.7488132,15,1640.06828482387,0.0266274539839988,"2016-6-1"
"1077 Botany Road, Mascot NSW 2020",151.1952106,-33.9283863,53,501.233130322394,5.62751889998968e-05,"2016-6-1"
"21-23 Cumberland Rd, Ingleburn NSW 2565",150.8712543,-33.9970085,24,683.472809344146,0.00012056257249991,"2016-6-1"
"1766 Horsley Drive, Horsley Park NSW 2175",150.8536228,-33.8420055,10,964.206877782375,0.00120713523099986,"2016-6-1"
"Lot 3 Great Western Highway (Cnr John Hines Ave), Minchinbury NSW 2770",150.8296732,-33.782983,16,126.212124369338,0.000197960131500301,"2016-6-1"
"Church St Cnr Meade St, Glen Innes NSW 2370",151.7379861,-29.7383021,6,95.9484074228849,1.10493649999843e-05,"2016-6-1"
"141-151 Hume Hwy Cnr Chadderton St, Lansvale NSW 2166",150.956926,-33.8948938,56,122.57696293365,4.0193676999856e-05,"2016-6-1"
"96 Hoxton Park Rd, Lurnea NSW 2170",150.9060396,-33.9276361,44,438.793736677524,0.000145756985500037,"2016-6-1"
"265-267 Lake Albert Rd, Kooringal NSW 2650",147.3755366,-35.1407736,20,1651.4723814298,0.000607024898999915,"2016-6-1"
"309 Victoria Rd, Rydalmere NSW 2116",151.0371167,-33.8119597,45,485.068449457676,0.000249829589999835,"2016-6-1"
"109 Gunnedah Rd, Tamworth NSW 2340",150.895551,-31.0973191,20,985.370199546743,0.00755445356600044,"2016-6-1"
"125 O'riordan St, Mascot NSW 2020",151.1912026,-33.9230958,55,694.054250901517,0.000194562555000135,"2016-6-1"
"Burns Bay Road, Lane Cove NSW 2066",151.1501583,-33.8250795,40,895.619709855947,0.000230966196499951,"2016-6-1"
"83 Mustang Dr, Rutherford NSW 2320",151.4983689,-32.7048727,7,926.070214749483,0.00920822296100144,"2016-6-1"
"341 Princes Hwy, Bomaderry NSW 2541",150.5947596,-34.8456517,10,566.416819096924,0.000186211515500012,"2016-6-1"
"229 Wentworth Avenue, Pendle Hill NSW 2145",150.9559549,-33.8002502,42,248.324574211342,5.63897560001432e-05,"2016-6-1"
"26 Mitchell St, Eden NSW 2551",149.9029367,-37.0636943,4,139.701350869321,0.000413089425499553,"2016-6-1"
"3 Williamtown Dr, Williamtown NSW 2318",151.8432252,-32.8116899,2,688.629489407793,NA,"2016-6-1"
"154-160 Parramatta Road & Corner Bold Street, Granville NSW 2142",151.0819655,-33.8642094,49,584.495290584174,0.000164293471999957,"2016-6-1"
"36A Great Western Hwy Cnr Mt York R, Mount Victoria NSW 2786",150.2465874,-33.5844748,1,6529.24176294882,0.0383423531884999,"2016-6-1"
"Cnr The Horsley Dr & Mcilwraith St, Wetherill Park NSW 2164",150.8903699,-33.852561,24,867.892176989766,0.000311002700500025,"2016-6-1"
"44 Sharp St Cnr Barron St, Cooma NSW 2630",149.130404,-36.233496,9,96.4451416387772,8.15517200003797e-06,"2016-6-1"
"54 Byron Street, Bangalow NSW 2479",153.5256665,-28.6864358,2,488.131334233212,0.00460960622999994,"2016-6-1"
"114-116 Church St, Mudgee NSW 2850",149.5876199,-32.5942803,9,125.028947280433,0.00675512887350034,"2016-6-1"
"155-157 Princes Highway, Ulladulla NSW 2539",150.4519465,-35.335122,8,529.2494322946,0.00189321362550032,"2016-6-1"
"72 Thorney Road, Fairfield West NSW 2165",150.9241641,-33.8736135,53,1136.47215559081,0.000265556509000283,"2016-6-1"
"602-606 Great Western Hwy, Pendle Hill NSW 2145",150.942036,-33.8083237,40,1118.2523162858,0.00026173634499987,"2016-6-1"
"2355 Camden Valley Way (Corner Beech Road), Casula NSW 2170",150.8847105,-33.9576135,29,531.120007962631,0.000151611361999843,"2016-6-1"
"1962 Camden Valley Way, Edmondson Park NSW 2171",150.8576556,-33.9540165,28,2089.3888141188,0.00065218132899965,"2016-6-1"
"488 Old South Head Rd Cnr Albemarle, Rose Bay NSW 2029",151.2723583,-33.8748078,15,599.912444811579,0.000150492312499968,"2016-6-1"
"90 Princes Highway, Milton NSW 2538",150.4371123,-35.3170868,4,512.559940667407,0.00151391220350159,"2016-6-1"
"236 Morrison Road, Putney NSW 2112",151.1084045,-33.8238745,35,1785.4077812842,0.000444710493500061,"2016-6-1"
"153 Forest Way, Belrose NSW 2085",151.2212191,-33.734749,13,1266.19855411904,0.00288060716349986,"2016-6-1"
"M4 Motorway Eastbound, Eastern Creek NSW 2766",150.8859626,-33.8016005,22,457.367012636335,0.000347835662999998,"2016-6-1"
"M4 Motorway Westbound, Eastern Creek NSW 2766",150.8811129,-33.8023821,22,457.367012636335,0.000433857622999822,"2016-6-1"
"87-91 Roberts Rd Cnr Moondo St, Greenacre NSW 2190",151.0648619,-33.9046147,62,506.02444143067,6.98704709999671e-05,"2016-6-1"
"179 Parramatta Road, Auburn NSW 2144",151.0359975,-33.8410797,50,1058.45400920456,0.000288398393500086,"2016-6-1"
"340 Great Western Highway, Wentworth Falls NSW 2782",150.3601156,-33.7113143,3,4036.76674884238,0.0169064166365036,"2016-6-1"
"199 Great Western Highway, Katoomba NSW 2780",150.3168687,-33.7070468,4,940.281611060397,0.00482900515799819,"2016-6-1"
"198 Great Western Highway, Hazelbrook NSW 2779",150.4519926,-33.7210055,2,2407.81725858664,0.0147433191420024,"2016-6-1"
"129 River St Cnr Woodburn St, Woodburn NSW 2472",153.3409495,-29.0719877,1,5847.55801522699,0.0324636914809984,"2016-6-1"
"240 Maitland Rd, Islington NSW 2296",151.7457473,-32.9113364,29,124.326181489475,5.36186924999563e-05,"2016-6-1"
"144 Wentworth Street, Port Kembla NSW 2505",150.9049148,-34.4838641,10,114.350661719622,0.000787800046692726,"2016-6-1"
"67 Orange Grove Road, Liverpool NSW 2170",150.9178992,-33.9070501,55,623.608834221488,0.000121161098500024,"2016-6-1"
"30-34 Princes Highway, Fairy Meadow NSW 2519",150.8941063,-34.3892431,24,546.740672857994,0.000117055210999906,"2016-6-1"
"39 Vernon Street, Woollahra NSW 2025",151.2474703,-33.889913,39,637.789987033857,0.000242520310499899,"2016-6-1"
"1/1 Craft Close, Toormina NSW 2452",153.0920772,-30.3416444,6,1202.16295517213,0.000391968739499985,"2016-6-1"
"332-336 Shellharbour Rd, Barrack Heights NSW 2528",150.8597784,-34.5648919,11,607.395802044704,0.000388110337999854,"2016-6-1"
"442A Punchbowl Road, Belmore NSW 2192",151.0769699,-33.9079424,64,498.821397136436,7.52537684999834e-05,"2016-6-1"
"1 Illabo Road, Junee NSW 2663",147.5853878,-34.8588372,3,963.48925324497,0.0682194592395004,"2016-6-1"
"Newell Highway, Tomingley NSW 2869",148.2788946,-32.5224265,1,24077.7823915636,0.123114549676499,"2016-6-1"
"209 Pittwater Road, Manly NSW 2095",151.2840945,-33.7874041,19,332.865008892636,NA,"2016-6-1"
"253 Princes Hwy, Albion Park Rail NSW 2527",150.8033533,-34.5676154,13,102.887980164441,0.000347698059000615,"2016-6-1"
"46 Albert Street, Freshwater NSW 2096",151.2869189,-33.7773132,20,874.816087651247,NA,"2016-6-1"
"20 Waratah Street, Bendalong NSW 2539",150.5317491,-35.246506,1,10880.5492387702,NA,"2016-6-1"
"9 Flinders St, Wollongong North NSW 2500",150.8928842,-34.4150183,23,743.715656634708,NA,"2016-6-1"
"29 President Ave, Kogarah NSW 2217",151.1411846,-33.9650876,48,349.559201104452,7.99963010000257e-05,"2016-6-1"
"211-213 Anzac Parade, Kensington NSW 2033",151.225127,-33.9144578,51,507.357768460465,7.50720304999518e-05,"2016-6-1"
"425 Crown Street, Wollongong West NSW 2500",150.8798847,-34.426422,25,220.355524403317,NA,"2016-6-1"
"313 Great Western Hwy, South Wentworthville NSW 2145",150.9718311,-33.8163788,45,1328.26600463379,0.000281997010500194,"2016-6-1"
"560-562 Victoria Rd Cnr Lawson St, Ermington NSW 2115",151.0547996,-33.8139726,38,1206.160582066,0.000280043507499975,"2016-6-1"
"793-797 Pittwater Rd, Dee Why NSW 2099",151.2920603,-33.7456837,22,422.210357290696,0.000333164280934213,"2016-6-1"
"Smithfield Rd Cnr Elizabeth Dr, Bonnyrigg NSW 2177",150.8818606,-33.8876829,36,647.445924603584,0.000291722738000171,"2016-6-1"
"369-375 Concord Rd, Concord West NSW 2138",151.0888755,-33.8411078,39,2063.21622614792,0.000677691553499704,"2016-6-1"
"133 Wyndham St Cnr Mcevoy St, Alexandria NSW 2015",151.2000581,-33.9020539,58,572.718640751742,0.000109258930500064,"2016-6-1"
"59-61 Pacific Hwy Cnr Unwin Rd, Waitara NSW 2077",151.1023535,-33.7106584,19,485.286413773977,0.000237348178000234,"2016-6-1"
"118 Old South Head Rd, Woollahra NSW 2025",151.2553451,-33.8896323,35,629.029536297054,0.000150537299000172,"2016-6-1"
"176 Warringah Rd, BEACON HILL NSW 2100",151.2602279,-33.7538143,27,511.626491026735,0.000267545741999877,"2016-6-1"
"404-410 Liverpool Rd, Croydon NSW 2132",151.115727,-33.8884736,66,71.0891208171642,5.39450054999536e-05,"2016-6-1"
"68 Jindabyne Rd, Berridale NSW 2628",148.8270154,-36.3653974,1,19003.5931345877,0.13102263021751,"2016-6-1"
"222 Tongarra Rd Cnr Calderwood St, Albion Park NSW 2527",150.7645618,-34.5713116,10,1111.86757458611,0.0136717175600013,"2016-6-1"
"2600 The Lakesway, Bungwahl NSW 2423",152.4444704,-32.3871481,1,8214.44241574802,0.0240660692435975,"2016-6-1"
"775 Princes Hwy, Tempe NSW 2044",151.1596833,-33.925351,65,919.413423630968,0.000229147937999875,"2016-6-1"
"26 Enmore Rd, Newtown NSW 2042",151.1770483,-33.8984924,65,491.423112952473,8.55287794999952e-05,"2016-6-1"
"12-14 Berowra Waters Rd, Berowra NSW 2081",151.150554,-33.6233814,5,444.900193225259,0.00632448831850047,"2016-6-1"
"95 Elizabeth Drive (Corner Park Road), Liverpool NSW 2170",150.9160168,-33.9182506,46,255.569927990105,4.11245480000185e-05,"2016-6-1"
"552 Pennant Hills Road, West Pennant Hills NSW 2125",151.0507795,-33.7468476,23,1242.21208597434,0.00037560223849981,"2016-6-1"
"147 Cary St, Toronto NSW 2283",151.5927672,-33.0128966,8,113.42793417924,0.00156957433100032,"2016-6-1"
"30-40 Alfred Rd, Chipping Norton NSW 2170",150.9648376,-33.924531,44,1031.98482703088,0.000366819203500064,"2016-6-1"
"1 Gregory Hills Drive, Gledswood Hills NSW 2557",150.7630278,-34.0199265,10,1550.6812717858,0.002729713306,"2016-6-1"
"271 Camden Valley Way, NARELLAN NSW 2567",150.7307572,-34.0415946,12,33.9278632136994,0.00176388663049884,"2016-6-1"
"477 Pacific Highway, Artarmon NSW 2064",151.1774287,-33.8105211,32,175.343441106522,6.36087905000129e-05,"2016-6-1"
"320 Lane Cove Road, North Ryde NSW 2113",151.1201707,-33.7923494,36,394.933902779,5.39911600000341e-05,"2016-6-1"
"22-26 Pearl Street, Kingscliff NSW 2487",153.5747183,-28.2562385,3,2200.63192049028,NA,"2016-6-1"
"51 Bondi Rd Cnr Park Rd, Bondi NSW 2026",151.260139,-33.8936544,33,434.752412495812,5.36599299029572e-05,"2016-6-1"
"98-100 Windsor Rd Cnr Lombard Rd, Northmead NSW 2152",150.9948813,-33.7876976,39,639.850376870217,0.000197534786999962,"2016-6-1"
"321 Old South Head Rd, North Bondi NSW 2026",151.2685566,-33.8846533,21,1137.17324173186,0.000677472380622391,"2016-6-1"
"363 Mona Vale Rd, St Ives North NSW 2075",151.1734779,-33.71687,12,1417.82613208915,0.00241243314599972,"2016-6-1"
"740-742 Pittwater Rd, Brookvale NSW 2100",151.274532,-33.7614677,20,162.459117180032,0.000142947259000077,"2016-6-1"
"115 Fairford Rd, Padstow NSW 2211",151.0341809,-33.9434142,50,502.384844253158,0.000129504650499956,"2016-6-1"
"119 Bourke St Cnr Erskine St, Dubbo NSW 2830",148.6092238,-32.2433855,14,215.965393229278,8.70776275000135e-05,"2016-6-1"
"13/3 Lancester St, Ingleburn NSW 2565",150.8677304,-33.9901729,24,126.090818148217,6.44727205000669e-05,"2016-6-1"
"106 Milperra Rd, Revesby NSW 2212",151.0087156,-33.9356151,42,645.673261095386,9.84408845000269e-05,"2016-6-1"
"18 Allandale St, Kearsley NSW 2325",151.3951061,-32.8586632,7,2550.46561789867,0.00782354425199911,"2016-6-1"
"494 Forest Road, Penshurst NSW 2222",151.0901314,-33.9632625,58,391.194274109644,0.000129762248499934,"2016-6-1"
"Bungendore Rd, Queanbeyan NSW 2620",149.2452522,-35.3479701,8,746.923599537145,0.00881381355049989,"2016-6-1"
"3 Angaphora Drive, Warabrook NSW 2304",151.7196105,-32.8866831,29,697.321616605143,0.000178870502500002,"2016-6-1"
"100 Bonnyrigg Avenue, Bonnyrigg NSW 2177",150.8887568,-33.8866866,39,647.445924603584,0.000130334492499972,"2016-6-1"
"5558 Old Northern Road, Wisemans Ferry NSW 2775",150.9858127,-33.3847285,1,9193.39507770943,0.0690336514844969,"2016-6-1"
"1233 Pacific Highway, Turramurra NSW 2074",151.131333,-33.7332003,22,451.955859813067,0.000250323488499804,"2016-6-1"
"Olympic Hwy, Culcairn NSW 2660",147.0345558,-35.6820553,2,1539.76442374136,0.031133507697999,"2016-6-1"
"159 Mona Vale Rd (Cnr Putarri Av) (Clsd 16 Jun'16), St Ives NSW 2075",151.156309,-33.7326774,16,198.909044787616,0.000359928459500213,"2016-6-1"
"65 Bowral Rd, Mittagong NSW 2575",150.4383185,-34.4525,8,518.527729328569,0.000358221038500413,"2016-6-1"
"170 Fitzmaurice St, Wagga Wagga NSW 2650",147.3679066,-35.1028826,21,74.5627482206827,8.84328510000319e-05,"2016-6-1"
"2-6 Swan St, Bega NSW 2550",149.8381732,-36.6738789,4,500.209174288856,0.000246152983999512,"2016-6-1"
"106 Princes Hwy (Cnr Tannery St), Unanderra NSW 2526",150.8451533,-34.4545829,20,43.4755627041816,0.000337697556500093,"2016-6-1"
"164 Warrimoo Avenue, St Ives Chase NSW 2075",151.1599269,-33.710941,11,1114.18172686719,0.00102346119200045,"2016-6-1"
"132 Maitland Road, Mayfield NSW 2304",151.7419818,-32.9017846,31,242.329905069552,9.10356150000257e-05,"2016-6-1"
"412-416 Maitland Road & Frith Street, Mayfield West NSW 2304",151.7301889,-32.8930263,33,673.425253220767,0.000103352611500121,"2016-6-1"
"101 Blaxcell St, GRANVILLE NSW 2142",151.0106548,-33.8426262,53,435.110328704563,6.67119765000416e-05,"2016-6-1"
"60 Glenn Street, Belrose NSW 2085",151.2091309,-33.7400708,17,1266.19855411904,0.000828804395999853,"2016-6-1"
"33351 Newell Highway, Boggabilla NSW 2409",150.3546882,-28.6068856,1,15943.3458125217,0.119711463923543,"2016-6-1"
"1579 Pacific Highway (Corner Redleaf Avenue), Wahroonga NSW 2076",151.1168053,-33.7198371,22,1344.51624269853,0.000446331385500127,"2016-6-1"
"1408 Pacific Highway (Corner Duff Street), Turramurra NSW 2074",151.1264569,-33.7331262,21,451.955859813067,0.00022972880500028,"2016-6-1"
"North Parade (Mt Druitt Market Place), Mount Druitt NSW 2770",150.8204224,-33.7692242,22,549.965891039801,0.000278809741000137,"2016-6-1"
"Jersey Road (Plumpton Market Place), Plumpton NSW 2761",150.8356889,-33.7441208,19,979.435119378,0.000235500825999936,"2016-6-1"
"254a Richardson Street, Spring Farm NSW 2570",150.7297086,-34.0685207,12,2960.49274915522,0.00226386863850065,"2016-6-1"
"315 Auburn Street, Goulburn NSW 2580",149.7233715,-34.7493998,17,399.288519630485,0.000250196845499981,"2016-6-1"
"490 Illawarra Road (Cnr Hill Street), Marrickville NSW 2204",151.1459086,-33.9185418,69,937.616835734168,0.000185345159500112,"2016-6-1"
"69 Princes Hwy (cnr Gladstone St), Kogarah NSW 2217",151.1371615,-33.9632309,49,105.767237377585,1.2636868500025e-05,"2016-6-1"
"449 Great Western Highway, Wentworthville NSW 2145",150.957169,-33.8126692,40,815.077596045149,0.000148038605500098,"2016-6-1"
"363 Windsor Rd (Cnr Olive St), Baulkham Hills NSW 2153",150.9915984,-33.7601992,23,1536.67975023342,0.000589516964999849,"2016-6-1"
"6 Hume Hwy, Warwick Farm NSW 2171",150.9307756,-33.9143477,53,1073.05684323691,0.000305336344000086,"2016-6-1"
"Lot 2 Langford Drive Cnr Mitchell D, Kariong NSW 2250",151.2955769,-33.4390903,6,2740.35180311006,0.00362342658400001,"2016-6-1"
"4 Lancaster St, Ingleburn NSW 2565",150.8668278,-33.9893203,23,126.090818148217,0.000283894183999826,"2016-6-1"
"21 White St Cnr Marius St, Tamworth NSW 2340",150.9342624,-31.0924759,19,619.044387158841,0.00117883531600008,"2016-6-1"
"490 Cowpasture Road, Hoxton Park NSW 2171",150.8548729,-33.9156272,24,1206.37919270781,0.000312466714499852,"2016-6-1"
"5 Princes Highway, Moruya NSW 2537",150.081585,-35.9045227,4,834.495347111884,0.0732085199884998,"2016-6-1"
"1412-1414 Pittwater Road, North Narrabeen NSW 2101",151.2996886,-33.7009119,8,486.767976761596,0.000684418845218159,"2016-6-1"
"40 Princes Highway, Unanderra NSW 2526",150.8469844,-34.4519307,20,278.053224404866,0.000188828931999392,"2016-6-1"
"141 Church St, Gloucester NSW 2422",151.9579414,-32.0122337,4,231.925891790952,0.0150564755819996,"2016-6-1"
"Goobarabah Ave Cnr Gorokan Drive, Lake Haven NSW 2263",151.5081561,-33.2439954,10,1046.15664445557,0.000526863679083819,"2016-6-1"
"370 Griffith Rd, Lavington NSW 2641",146.9374751,-36.0482339,15,441.072177436205,0.00132289941350017,"2016-6-1"
"68 Duri Road, Tamworth NSW 2340",150.8996708,-31.1081816,18,1266.85006872457,0.00552815401050084,"2016-6-1"
"662-664 Barrenjoey Rd, North Avalon NSW 2107",151.3344985,-33.625937,6,1226.01819343875,0.00480738492012088,"2016-6-1"
"5 Boulder Bay Road, Fingal Bay NSW 2315",152.169295,-32.7491686,2,3796.56053336924,NA,"2016-6-1"
"580-586 Parramatta Road, Croydon NSW 2132",151.1264216,-33.8744317,57,224.204937036261,7.66097675000737e-05,"2016-6-1"
"Cnr Parramatta & Missenden Roads, Camperdown NSW 2050",150.9992393,-33.8175275,51,934.297844440724,0.00018893859449997,"2016-6-1"
"1721 Pittwater Road, Mona Vale NSW 2103",151.3023908,-33.6803842,11,669.628636354794,0.00312973430300033,"2016-6-1"
"2 Princes Highway, St Peters NSW 2044",151.1815092,-33.9075766,60,982.608062460726,0.000175335603999914,"2016-6-1"
"116 Regent Street, Redfern NSW 2016",151.1995945,-33.8936314,58,475.088794055982,7.56001735000219e-05,"2016-6-1"
"646 Richmond Rd, Glendenning NSW 2761",150.8531879,-33.7375186,19,1550.73541279325,0.000555324987500068,"2016-6-1"
"80 Heathcote Road, Moorebank NSW 2170",150.935817,-33.935939,33,435.832670228933,0.000180225783499935,"2016-6-1"
"175 Ourimbah Road, Mosman NSW 2088",151.233291,-33.8209587,15,969.649107781745,0.000422663005500504,"2016-6-1"
"169 Willoughby Road, Naremburn NSW 2065",151.2011506,-33.8199551,30,1068.01350992993,0.000282694955999891,"2016-6-1"
"155-157 Rockwood Road, Yagoona NSW 2199",151.038516,-33.8931369,64,611.574911551059,0.000233775404000053,"2016-6-1"
"21 Boundary Road, Mortdale NSW 2223",151.0735465,-33.9706194,43,955.91891617779,0.000216775469999959,"2016-6-1"
"83 Princes Highway, Albion Park Rail NSW 2527",150.7904003,-34.554231,13,96.0846186456985,0.00012836904199962,"2016-6-1"
"Northgate Ctr 224 Princess Hway, Fairy Meadow NSW 2519",150.891736,-34.4034237,26,1048.29793874156,0.000287755476500019,"2016-6-1"
"339 Princes Highway, Sydenham NSW 2044",151.1728502,-33.9162497,64,440.842747014729,0.000137508590999931,"2016-6-1"
"632 Warringah Road, Forestville NSW 2087",151.2143834,-33.7600027,19,222.755956267814,7.71316060002288e-05,"2016-6-1"
"851 Richmond Road, Marsden Park NSW 2765",150.8072623,-33.6723498,6,864.607565545312,0.00157861464450051,"2016-6-1"
"1233 Victoria Road (Cnr Marsden Rd), West Ryde NSW 2114",151.0709707,-33.8067203,35,494.725684244056,0.00031271773850007,"2016-6-1"
"1055 Great Western Highway, Minchinbury NSW 2770",150.8243989,-33.7819863,20,396.740180820555,0.000525471625999814,"2016-6-1"
"28 Great Western Highway, Valley Heights NSW 2777",150.5818015,-33.7017728,5,2723.1605380634,0.00193496948499968,"2016-6-1"
"Abbott Road, Seven Hills NSW 2147",150.950218,-33.7671636,39,431.752026316019,7.74132385003391e-05,"2016-6-1"
"154-156 Prospect Hwy, Seven Hills NSW 2147",150.941509,-33.7690909,39,98.8700337398784,6.35434055000561e-05,"2016-6-1"
"104 Lindsay Street, Campbelltown NSW 2560",150.8258332,-34.0655773,21,812.895221597328,0.000203179650499983,"2016-6-1"
"120 Rocky Points Rd, Kogarah NSW 2217",151.1368205,-33.9769227,44,813.603490709992,9.79085606663631e-05,"2016-6-1"
"256 Kissing Point Rd, Dundas NSW 2117",151.0532939,-33.7992244,35,585.1933360718,0.000248436545500009,"2016-6-1"
"485 Sydney Road, Balgowlah NSW 2093",151.2559432,-33.7954014,19,1564.08147508218,NA,"2016-6-1"
"5 Bullecourt Avenue, Milperra NSW 2214",150.9889779,-33.9375157,37,507.299135633539,0.000134108879000119,"2016-6-1"
"422 Pacific Hwy, Artarmon NSW 2064",151.1756867,-33.8111412,34,175.343441106522,4.27483300000645e-05,"2016-6-1"
"1234 Princess Highway, Engadine NSW 2233",151.0108517,-34.0772668,5,1218.49127095299,0.00140892742600004,"2016-6-1"
"Cnr Hume Hwy & Pine Avenue, Casula NSW 2170",149.0481264,-34.8288721,2,12249.8474371002,0.06098105517,"2016-6-1"
"189 Belmore Road, Riverwood NSW 2210",151.0510526,-33.9556989,45,762.226621025661,0.000205886196500098,"2016-6-1"
"76 Glossop Street, St Marys NSW 2760",150.7816733,-33.7602001,22,121.276700815689,0.000234786328499912,"2016-6-1"
"5243 Snowy Mountains Highway, Adaminaby NSW 2629",148.7701112,-35.9970641,2,680.413742255846,0.204541616579493,"2016-6-1"
"316 Penhurst St, Willoughby NSW 2068",151.1958944,-33.7938147,35,512.210149393522,0.000118531111499896,"2016-6-1"
"Henry Lawson Drive, Bankstown NSW 2200",150.983598,-33.9384156,32,507.299135633539,0.000733168786000495,"2016-6-1"
"438 Crown St, West Wollongong NSW 2500",150.872928,-34.4250438,24,54.920906695129,2.85251234999943e-05,"2016-6-1"
"368 Anzac Parade, Kingsford NSW 2032",151.226795,-33.9196208,50,593.093475898701,6.16817999999854e-05,"2016-6-1"
"24-42 King Georges Road, Wiley Park NSW 2195",151.0668013,-33.9194768,70,302.749080634448,3.41645900000679e-05,"2016-6-1"
"322 Canterbury Road, Canterbury NSW 2193",151.1130375,-33.9149737,81,224.996926306631,6.10417739998923e-05,"2016-6-1"
"582 Old Northern Road, Dural NSW 2158",151.0297917,-33.6951994,10,170.122543829594,0.000227346993999813,"2016-6-1"
"47 Nolan Street (Corner Northcliffe Road), Berkeley NSW 2506",150.8394134,-34.4768598,16,725.902411745221,0.000609725307999992,"2016-6-1"
"Cnr Barrenjoey & Darley Roads, Mona Vale NSW 2103",151.3230945,-33.6428508,8,978.277829134453,0.0027069929994995,"2016-6-1"
"19-21 Windsor Road, Kellyville NSW 2155",150.9589397,-33.7128002,10,193.176040634782,0.000801232921499982,"2016-6-1"
"Lanyon Dr Cnr Mccrae St, Queanbeyan NSW 2620",149.2115674,-35.3594983,10,849.820937897964,0.000409041276999954,"2016-6-1"
"Lot 1 Cowpasture Rd, Hoxton Park NSW 2171",150.8481754,-33.9253933,20,72.5272957183426,0.000115697093500124,"2016-6-1"
"Cnr Milperra & River Rds, Revesby NSW 2212",151.0002109,-33.9322069,40,872.469684727018,0.000238599046999808,"2016-6-1"
"1234 Pittwater Road, Narrabeen NSW 2101",151.2982952,-33.7196065,12,683.699652833582,0.000838747661675917,"2016-6-1"
"1497 Pittwater Road & Gondola Street, Narrabeen NSW 2101",151.2964925,-33.7079296,10,366.008133230147,0.000330555224999969,"2016-6-1"
"41 - 43 Princes Highway, Unanderra NSW 2526",150.8492785,-34.4502963,21,278.053224404866,0.000245096183999961,"2016-6-1"
"16 King St, Warners Bay NSW 2282",151.6453117,-32.9755979,25,261.609393240323,NA,"2016-6-1"
"254-256 Shellharbour Rd, Barrack Heights NSW 2528",150.8594128,-34.5594249,11,268.946516595427,0.00014895844449997,"2016-6-1"
"185 Bondi Rd, Bondi NSW 2026",151.2647527,-33.8944023,31,434.752412495812,0.000462776404948962,"2016-6-1"
"518 Rocky Point Road, Sans Souci NSW 2219",151.1324083,-33.992469,37,1148.52470409818,0.000496505777000304,"2016-6-1"
"39 Pangee St, NYNGAN NSW 2825",147.1914997,-31.56101,3,139.467467169045,0.976220169204502,"2016-6-1"
"149 Great Western Hwy, Mays Hill NSW 2145",150.9893848,-33.819343,47,747.101298368788,0.000142863177499898,"2016-6-1"
"26 Durham Rd, East Gresford NSW 2311",151.5508087,-32.4276457,1,12798.1015386976,0.164046410253996,"2016-6-1"
"505 Crown St, West Wollongong NSW 2500",150.8725123,-34.4255018,24,63.5719914195072,0.000185155703155313,"2016-6-1"
"80-82 Central Ave, OAK FLATS NSW 2529",150.819417,-34.562679,19,935.515337975721,0.000586123806999761,"2016-6-1"
"73 Main St, Alstonville NSW 2477",153.4388702,-28.8411584,4,338.621518664776,0.00499710376449998,"2016-6-1"
"124 Nymagee Street, Nyngan NSW 2825",147.2001333,-31.5631445,3,714.637339421107,0.39434126139949,"2016-6-1"
"20-22 Babbage Rd, Roseville NSW 2069",151.1945551,-33.7780213,26,959.477718465818,0.00042239499950027,"2016-6-1"
"110 Galston Rd., Hornsby Heights NSW 2077",151.0984029,-33.6764939,6,1600.99702968566,0.00260588492549956,"2016-6-1"
"16-18 Lake St Cnr Macintosh St, Forster NSW 2428",152.5162479,-32.1830691,6,859.589530930878,NA,"2016-6-1"
"2 Johnson Road, Tuggerah NSW 2259",151.4210777,-33.2943159,15,124.068369257268,0.000185674938499918,"2016-6-1"
"277 Newtown Road, Bega NSW 2550",149.8395471,-36.6904532,4,1679.19529840751,0.0119501390455002,"2016-6-1"
"51 Roberts Road (Cnr Amarina St), Greenacre NSW 2190",151.0659653,-33.9001464,65,506.02444143067,6.29121184999361e-05,"2016-6-1"
"136 Appin Road, Appin NSW 2560",150.7898766,-34.1951344,2,674.704509054173,0.00788324915350002,"2016-6-1"
"Cnr Thirlmere Way & Remembrance Drive, Tahmoor NSW 2573",150.5740784,-34.2002792,6,1222.56709050355,0.0011908765020008,"2016-6-1"
"348 Barrenjoey Road, Newport NSW 2106",151.3201794,-33.6555761,8,207.838313527059,0.000727702816424622,"2016-6-1"
"41 Collins St, KIAMA NSW 2533",150.8532894,-34.6680421,2,1668.39665635093,0.00518069900456869,"2016-6-1"
"158 Clyde Street (Cnr Redfern St), Granville NSW 2142",151.0125643,-33.8462108,54,140.860111899105,5.96832504999441e-05,"2016-6-1"
"742 Forest Road, Peakhurst NSW 2210",151.067992,-33.9575169,53,118.582734959548,4.65396634999086e-05,"2016-6-1"
"88 Bega Street, Tathra NSW 2145",149.9806941,-36.7331934,1,13473.4076052076,0.0205584680712892,"2016-6-1"
"11 Macquarie Street, Windsor NSW 2756",150.8233241,-33.6056601,10,1235.12185190534,0.000749035855000173,"2016-6-1"
"504 Pittwater road, North Manly NSW 2100",151.2708256,-33.7751939,20,855.706066316392,0.000195673446684433,"2016-6-1"
"Kurrajong Road (Carnes Hill Marketplace), Hoxton Park NSW 2171",150.8448556,-33.9359785,22,1213.58164483467,0.000491860121000124,"2016-6-1"
"171 Clyde Street, South Granville NSW 2142",151.0129213,-33.8474453,54,140.860111899105,0.000117130229499992,"2016-6-1"
"656 Warringah Rd, FORESTVILLE NSW 2087",151.2120231,-33.7596197,21,61.9674988669289,4.74495079999642e-05,"2016-6-1"
"1 Avenue of the Americas, Newington NSW 2127",151.0564605,-33.834006,43,833.321842979243,0.000409521726000211,"2016-6-1"
"137 Windsor Road, Northmead NSW 2152",150.9970736,-33.7822271,35,603.806657747881,0.000180482587500002,"2016-6-1"
"281 New Canterbury Rd, Lewisham NSW 2049",151.1456662,-33.8985445,64,344.148664792919,0.00011579071149986,"2016-6-1"
"Mid Western Hwy Cnr Emu St, West Wyalong NSW 2671",147.0832962,-33.8923184,1,11349.9601713822,0.192104307940998,"2016-6-1"
"86 Kenthurst Road, Kenthurst NSW 2156",151.010796,-33.6821972,7,1524.02470237725,0.000916021940000326,"2016-6-1"
"126 Windsor Road, Mcgraths Hill NSW 2756",150.8335206,-33.6152339,10,179.210994140064,0.000290783967000124,"2016-6-1"
"42 Ambrose Street, Carey Bay NSW 2283",151.6051001,-33.0229767,8,1605.49124700326,NA,"2016-6-1"
"7 Sturt Highway, Darlington Point NSW 2706",145.9925827,-34.5943702,2,2904.80401211967,0.0786759712759994,"2016-6-1"
"210 Guildford road, Guildford NSW 2161",150.9908562,-33.8551556,67,215.313210558145,7.28843984999627e-05,"2016-6-1"
"49 Canterbury Rd, Bankstown NSW 2200",151.0396169,-33.9327814,60,165.474446304499,0.000102622830000092,"2016-6-1"
"88 Clovelly Road, Randwick NSW 2031",151.2485378,-33.9087151,43,1274.92524887964,NA,"2016-6-1"
"54 Alice Street, Moree NSW 2400",149.8433324,-29.4716539,6,572.240134978785,0.000569445653999845,"2016-6-1"
"1135 Pacific Hwy, Lake Munmorah NSW 2259",151.5521905,-33.1864749,5,369.365569631388,NA,"2016-6-1"
"87-89 Parramatta Rd, CONCORD NSW 2137",151.099381,-33.8678601,49,207.74856487858,5.82429950000608e-05,"2016-6-1"
"403 Argyle St, Picton NSW 2571",150.6051262,-34.1880593,4,2242.89314211624,0.00264376930549992,"2016-6-1"
"116-118 Railside Ave, Bargo NSW 2574",150.5799718,-34.2929107,4,4235.46849927253,0.0116273646095003,"2016-6-1"
"394 Fifteenth Ave, Austral NSW 2179",150.8144195,-33.9194171,11,1605.99098543164,0.00151487543350012,"2016-6-1"
"137 Kenthurst Rd, Kenthurst NSW 2156",151.0059333,-33.6604518,8,2453.71940337554,0.0073871453450003,"2016-6-1"
"lot 8 Woodenbong Road, Bonalbo NSW 2469",152.6289163,-28.7380121,1,17596.6289244514,0.0830810758834993,"2016-6-1"
"6 Stephens Road, Queanbeyan NSW 2620",149.208709,-35.3465734,10,1457.32628734811,0.00187590801699933,"2016-6-1"
"65 Tharwa Road, Queanbeyan NSW 2620",149.2208023,-35.358299,9,849.820937897964,0.000201978287000186,"2016-6-1"
"2 Blaxcell St, Granville NSW 2142",151.0110136,-33.8362561,54,637.612881894208,0.00010967606400003,"2016-6-1"
"2 Minorca Pl Cnr Toormina Rd, Toormina NSW 2452",153.0906504,-30.3524177,6,920.718978117846,0.00119241644993303,"2016-6-1"
"The Entrance Rd Cnr Bellevue Rd, Forresters Beach NSW 2260",151.4618696,-33.4091248,6,2751.01659866451,0.00169862952191014,"2016-6-1"
"126 Pacific Hwy, SWANSEA NSW 2281",151.6382615,-33.088127,3,3507.9317823586,0.00322034299840731,"2016-6-1"
"1563 Wisemanferry Rd, Maroota NSW 2756",150.9748203,-33.472207,2,2444.09371436803,0.0112302604289992,"2016-6-1"
"30 Bonds Road (Corner Romilly Street), Riverwood NSW 2210",151.0583644,-33.9525217,50,762.226621025661,0.000162454519499965,"2016-6-1"
"142 Windsor Road (Corner Mulgrave Road), McGraths Hill NSW 2756",150.834226,-33.616738,10,179.210994140064,0.000914985427499785,"2016-6-1"
"4-6 Kosciusko Rd, Jindabyne NSW 2627",148.6196447,-36.4132261,4,595.478660446431,0.0113024462704975,"2016-6-1"
"403 Canterbury Road, Campsie NSW 2194",151.1087526,-33.9161479,80,417.106738061458,0.000120091744500092,"2016-6-1"
"280 Canterbury Road, Canterbury NSW 2193",151.1151866,-33.9140228,84,224.996926306631,0.000127266036500006,"2016-6-1"
"709 Cabramatta Road, Bonnyrigg NSW 2177",150.8923798,-33.8930954,41,785.907822182775,0.000146692457000126,"2016-6-1"
"275 Bay Street, Brighton-Le-Sands NSW 2216",151.1531144,-33.9599129,45,467.018708688329,0.000119394666913718,"2016-6-1"
"208-212 Cabramatta Rd, Cabramatta West NSW 2166",150.9367228,-33.8957248,58,780.869362329204,0.000240082363499966,"2016-6-1"
"Lot 12 South Western Freeway (Hume Hwy), Pheasants Nest NSW 2574",150.6394303,-34.2828848,1,5586.28551233828,0.0157070253900018,"2016-6-1"
"465 Pacific Hwy, Wyoming NSW 2250",151.3500005,-33.4093924,14,39.3702638424217,0.000581631851000213,"2016-6-1"
"New England Highway, Moonbi NSW 2353",151.096935,-30.9869823,1,8739.28228304296,0.0431414104329989,"2016-6-1"
"7452 Newell Hwy, Beckom NSW 2665",146.9584169,-34.3315988,1,6283.4401902053,0.0783650718390009,"2016-6-1"
"2808 Princes Hwy (cnr Ford St), Moruya NSW 2537",150.08392,-35.9201575,4,831.060858137664,0.0142700352565996,"2016-6-1"
"127 Victoria Road, Rozelle NSW 2039",151.1676471,-33.8621049,46,90.4825288625927,5.02915645000426e-05,"2016-6-1"
"262-272 Victoria Road, Rydalmere NSW 2116",151.0323885,-33.8100763,44,485.068449457676,0.000208962423999982,"2016-6-1"
"52 Mitchell Street, Eden NSW 2551",149.8989719,-37.0652594,4,393.07350644228,0.114832018199563,"2016-6-1"
"180 Manning St, KIAMA NSW 2533",150.8482963,-34.6825048,2,1668.39665635093,0.00439272875156439,"2016-6-1"
"287 Main Street, Toukley NSW 2263",151.5460157,-33.2650035,4,3520.33598636872,0.00275153450242559,"2016-6-1"
"362 Putty Road, Wilberforce NSW 2756",150.8301421,-33.5287176,4,3801.86214452575,0.0131878434164995,"2016-6-1"
"3030 Remembrance Drive, Bargo NSW 2574",150.5739765,-34.2550541,6,1219.36935038334,0.00566758566400009,"2016-6-1"
"82-86 Hamilton Road, Fairfield NSW 2165",150.9499226,-33.8729033,57,372.970075607855,7.46314959999111e-05,"2016-6-1"
"1579 Botany Road, Botany NSW 1579",151.2011659,-33.9525277,32,1966.94281124457,0.00054698910941771,"2016-6-1"
"77 Bombala Street, Delegate NSW 2633",148.9377404,-37.0445009,1,30447.4653142156,NA,"2016-6-1"
"275 Pacific Highway, Hornsby NSW 2077",151.0995543,-33.690896,14,1271.3219957087,0.000605792445999613,"2016-6-1"
"133-139 Pettwater Rd, Manly NSW 2095",151.2848154,-33.7903441,19,315.729569457838,NA,"2016-6-1"
"85-87 John Street, Coonabarabran NSW 2357",149.2771566,-31.2723111,3,174.673085442813,0.053577762081,"2016-6-1"
"149 - 151 Parkes Street, Helensburgh NSW 2508",150.9777831,-34.1923397,1,11537.0952065351,0.0135770373867359,"2016-6-1"
"846 The Horsley Dr, Smithfield NSW 2164",150.9256232,-33.8514982,39,606.8714532229,0.000418762335499771,"2016-6-1"
"68 Goldsmith Street, Goulburn NSW 2580",149.719228,-34.7505216,17,216.688329880733,0.00236979711550145,"2016-6-1"
"533,Mowbray Rd, Lane Cove NSW 2066",151.1663034,-33.8059938,38,590.322541626515,0.000118126572999937,"2016-6-1"
"2-4 Church Street, Port Kembla NSW 2505",150.9032748,-34.4856092,10,133.5629989763,9.09933186594868e-05,"2016-6-1"
"181 The Boulevarde, Miranda NSW 2228",151.1096635,-34.0301774,25,389.819781858371,0.000185309854000188,"2016-6-1"
"65 Bexley Rd, Campsie NSW 2194",151.1067478,-33.9223709,76,714.722952492643,0.000149313983999972,"2016-6-1"
"51 Spofforth St, Cremorne NSW 2090",151.2283196,-33.8343994,15,483.91027753977,0.000587370104000259,"2016-6-1"
"505 Campbelltown Road, Denham Court NSW 2565",150.8466162,-33.9826608,24,2008.3333827792,0.000732195975500353,"2016-6-1"
"1/169 Annangrove Rd, Annangrove NSW 2156",150.9562552,-33.6710816,7,3922.65768740408,0.00303675065649982,"2016-6-1"
"103 Smith ST, Kempsey NSW 2440",152.8444126,-31.0753687,9,126.235985287235,0.00128319861500029,"2016-6-1"
"130 Hamilton Road, Fairfield NSW 2165",150.9459033,-33.8726458,53,63.7718140381872,2.15207519999797e-05,"2016-6-1"
"1 The Strand, Dee Why NSW 2099",151.2961741,-33.7554944,21,897.064689605335,0.00018034288717278,"2016-6-1"
"95 Ballantrae Drive, St Andrews NSW 2566",150.833198,-34.0207225,23,382.805195153242,0.000407758593500042,"2016-6-1"
"41 Minmi Rd, WALLSEND NSW 2287",151.661895,-32.8896321,14,419.303044756266,0.00216249034599956,"2016-6-1"
"39 Oaks Rd, Thirlmere NSW 2752",150.5608786,-34.2013683,5,1222.56709050355,0.0238220791009988,"2016-6-1"
"189 South Creek Rd, Cromer NSW 2099",151.2803635,-33.7361527,20,1514.05662428716,0.00101430454849986,"2016-6-1"
"607 Canterbury Road, Belmore NSW 2192",151.0959163,-33.9214794,76,925.001693984797,0.000148817692000179,"2016-6-1"
"263 Great Western Highway, Blackheath NSW 2785",150.285083,-33.6337476,3,420.635771450772,0.0142215649510009,"2016-6-1"
"638 New South Head Rd, Rose Bay NSW 2029",151.2677728,-33.8706069,15,107.239451300691,0.000500756093000313,"2016-6-1"
"13 Canterbury Road, Canterbury NSW 2193",151.1252332,-33.9078127,74,540.617866733383,0.000136902992500085,"2016-6-1"
"795 Luxford Road (Corner Buckwell Drive), Hassall Grove NSW 2761",150.8366605,-33.7353279,14,979.435119378,0.000369519762999966,"2016-6-1"
"Lot 6 Luxford Road, Mount Druitt NSW 2770",150.8266994,-33.7646334,22,231.487515627106,0.000234407695499741,"2016-6-1"
"461 Hume Hwy, Casula NSW 2170",150.9118174,-33.9408828,33,1178.18088415213,0.000310278128000243,"2016-6-1"
"95 Five Islands Road, Cringila NSW 2502",150.8717379,-34.4659188,27,1596.80664374469,0.000556509957000059,"2016-6-1"
"45 Yanko Road, West Pymble NSW 2073",151.1285255,-33.7620792,23,1812.83286950023,0.000562452165499895,"2016-6-1"
"2 Opal St, Tingha NSW 2369",151.2125894,-29.9552885,1,21459.1702433323,0.124998775897498,"2016-6-1"
"42 Naval Pde, EROWAL BAY NSW 2540",150.6507892,-35.0996033,3,1629.39162951035,NA,"2016-6-1"
"152 Toongabbie Rd, Girraween NSW 2145",150.9390146,-33.7955317,38,837.678296488716,0.000144186594500016,"2016-6-1"
"190 Canley Vale Rd, Canley Heights NSW 2166",150.928557,-33.884527,54,416.712391161159,0.000117152639499852,"2016-6-1"
"1432 Windsor Rd (cnr Woodlands St), Vineyard NSW 2765",150.8743855,-33.6573099,7,1353.03930859596,0.00120154130399957,"2016-6-1"
"52 Great Western Hwy (cnr Albion St), Katoomba NSW 2780",150.3067256,-33.7070842,4,940.281611060397,0.0585707363720004,"2016-6-1"
"196 The River Road, Revesby NSW 2212",151.0165261,-33.9556495,31,73.9707803806746,0.000749181217500088,"2016-6-1"
"47 Lakemba Street, Belmore NSW 2192",151.0856445,-33.9139649,69,968.861140565173,0.000159068006999831,"2016-6-1"
"1141 Castlereagh Rd, Castlereagh NSW 2749",150.6771887,-33.6693538,1,5095.27784659746,0.0049288532174995,"2016-6-1"
"24 Chatham Rd, Pitt Town NSW 2756",150.8603637,-33.5868016,7,223.361253727441,0.0013221042404992,"2016-6-1"
"119 Harbord Rd, Freshwater NSW 2096",151.2794674,-33.7724673,20,855.706066316392,9.22478131880663e-05,"2016-6-1"
"729 The Horsley Drive, Smithfield NSW 2164",150.9357342,-33.8522655,46,333.265691866801,5.62397689999874e-05,"2016-6-1"
"102 Maloney St, Eastlakes NSW 2018",151.2058089,-33.9309588,54,885.092285322892,0.000243683166000038,"2016-6-1"
"369C Bexley Road, Bexley NSW 2207",151.1230203,-33.9458271,67,489.160218520346,6.86862239999737e-05,"2016-6-1"
"599 Old South Head Rd, Rose Bay NSW 2029",151.2771385,-33.8692319,12,760.346794166016,0.00312435405974271,"2016-6-1"
"405 Hume Highway, Yagoona NSW 2199",151.0291505,-33.9089155,61,1077.40689669174,0.000203080062999974,"2016-6-1"
"1/3 Haldon St, Lakemba NSW 2195",151.0763299,-33.9179636,71,799.385816760524,8.47976735000341e-05,"2016-6-1"
"136 Woodlark St, Lismore NSW 2480",153.2807559,-28.8080812,20,97.4046682999488,1.64843639999989e-05,"2016-6-1"
"6,Doyle Rd, Revesby NSW 2210",151.0186906,-33.9458271,35,838.500370258246,0.000152760620000208,"2016-6-1"
"33-35 Wardell Road, Earlwood NSW 2206",151.1335715,-33.9160066,71,567.663538724048,9.08451000000298e-05,"2016-6-1"
"114,Boundary Rd, Peakhurst NSW 2210",151.0680491,-33.9633195,47,552.138768187837,9.99111800001147e-05,"2016-6-1"
"160 South Terrace, Bankstown NSW 2200",151.0441662,-33.9186355,67,1515.08638084386,0.000245455188000063,"2016-6-1"
"331 Waterloo Road, Greenacre NSW 2190",151.0592662,-33.8959797,62,492.834799858371,7.48347154999838e-05,"2016-6-1"
"364-366 Eastern Valley Way, Chatswood East NSW 2067",151.2010511,-33.7865969,31,191.809847560503,0.000326706848499906,"2016-6-1"
"836 Forest Road, Peakhurst NSW 2100",151.0607363,-33.9599634,48,723.463788858265,0.000133485435000137,"2016-6-1"
"390 Princes Highway, Blakehurst NSW 2221",151.1136347,-33.9902844,44,415.922281702258,0.00035410371599972,"2016-6-1"
"36 Henderson Road, Alexandria NSW 2015",151.1972615,-33.8974472,60,475.088794055982,8.97681495000715e-05,"2016-6-1"
"97 Hume Highway, Chullora NSW 2190",151.0576809,-33.8917378,67,492.834799858371,0.000250659899500072,"2016-6-1"
"314 Princes Highway (Cnr Banksia Street), Banksia NSW 2216",151.1416946,-33.9456696,57,786.466041104303,0.000151216817000072,"2016-6-1"
"2 Cary Grove (Cnr Ben Lomond Drive), Minto NSW 2566",150.8367608,-34.0261722,24,298.827836509604,7.29518860000916e-05,"2016-6-1"
"136 Hume Highway (cnr Hollywood Drive), Lansvale NSW 2166",150.9582271,-33.8946841,56,122.57696293365,6.7284388999894e-05,"2016-6-1"
"475 Cleveland St, Redfern NSW 2016",151.2161559,-33.8921803,52,266.65165951601,0.000115361252499952,"2016-6-1"
"Brooks St (Glenquarie Shopping Centre), Macquarie Fields NSW 2564",150.8895204,-33.9892071,18,542.806581594686,0.000467331741999644,"2016-6-1"
"48-50 Blaxland Road, Campbelltown NSW 2560",150.8119636,-34.0611191,23,183.553809011963,8.00095615000827e-05,"2016-6-1"
"774 Parramatta Road, Lewisham NSW 2049",151.1479693,-33.8903112,70,507.129996764965,4.67223584998894e-05,"2016-6-1"
"449 Captain Cook Drive, Woolooware NSW 2230",151.1438187,-34.0386942,11,1270.60521886493,0.00189820932850943,"2016-6-1"
"287 Liverpool Road, Burwood NSW 2134",151.0996931,-33.8872373,67,176.781250259607,0.000113416211499983,"2016-6-1"
"218 King Georges Road, Roselands NSW 2196",151.073474,-33.9330388,66,65.2937330892293,4.08004559999574e-05,"2016-6-1"
"Macarthur Gardens Village U 57 100 Gilchrist Drive, CAMPBELLTOWN NSW 2560",150.794467,-34.077421,17,1040.540269044,0.00102919702999986,"2016-6-1"
"12-14 Norfolk Street, Ingleburn NSW 2565",150.8647644,-33.9999663,23,683.472809344146,0.000272874431500085,"2016-6-1"
"3 Thomas Rose Drive, Rosemeadow NSW 2560",150.7987053,-34.1000412,13,1230.03902997995,0.000613001422000053,"2016-6-1"
"770 Richmond Road, Berkshire Park NSW 2765",150.8011898,-33.6664351,6,247.041789041443,0.000459469705000059,"2016-6-1"
"66 Captain Cook Drive, Caringbah NSW 2229",151.123995,-34.0327784,21,801.325897740219,0.000170081147499881,"2016-6-1"
"Eaglevale Road (Eaglevale Market Place), Eagle Vale NSW 2558",150.8083924,-34.0349909,22,1926.05512527474,0.00128902914750007,"2016-6-1"
"3964 Wallanbah Rd Cnr Pacific Hwy, Nabiac NSW 2312",152.3754346,-32.098592,2,1028.55251446611,0.00884260963250016,"2016-6-1"
"24 Railwayst, Lidcombe NSW 2141",151.0456992,-33.8646968,55,228.837441973014,0.000237001102500224,"2016-6-1"
"662 Windsor Rd (cnr Meriville Rd), Kellyville NSW 2155",150.9279371,-33.699549,12,2141.36434231088,0.00074570914350031,"2016-6-1"
"262 Maitland Rd (Pacific Highway), Islington NSW 2296",151.7455596,-32.9102266,29,124.326181489475,7.6059310499977e-05,"2016-6-1"
"1642 The Horsley Dr, Horsley Park NSW 2164",150.8638141,-33.843808,13,964.206877782375,0.000791035511999497,"2016-6-1"
"152 Moorefields Road, Kingsgrove NSW 2208",151.0863744,-33.9355015,68,1095.0184639554,0.000170844960000104,"2016-6-1"
"338 Princes Highway, Blakehurst NSW 2221",151.1126438,-33.9866267,47,415.922281702258,5.61000935000804e-05,"2016-6-1"
"663 Warringah Road, Forestville NSW 2087",151.2114366,-33.7598883,21,61.9674988669289,4.29280935001324e-05,"2016-6-1"
"273 Old Hume Highway, Camden NSW 2570",150.6946186,-34.0864134,4,3152.18184457005,0.00682889463600018,"2016-6-1"
"592-596 Old Northern Rd, Dural NSW 2158",151.0312614,-33.6942811,10,170.122543829594,0.000527262576000072,"2016-6-1"
"27 Queen Street, Campbelltown NSW 2560",150.8193605,-34.0604342,22,398.087798356751,0.000117083442000004,"2016-6-1"
"4 Century Circuit, Baulkham Hills NSW 2153",150.9626446,-33.7334649,23,2317.6535963885,0.000743305949999971,"2016-6-1"
"1443 Camden Valley Way, Leppington NSW 2171",150.8155811,-33.9664303,8,425.062247270252,0.00022375939499991,"2016-6-1"
"197 Windsor Road, Northmead NSW 2152",151.0000877,-33.7774002,34,603.806657747881,0.00031614112699992,"2016-6-1"
"126 Great Western Highway, Blaxland NSW 2774",150.6109504,-33.7451049,8,151.62187651131,0.000249888833999978,"2016-6-1"
"200-204 Ben Boyd Rd (Cnr Ernest St), Neutral Bay NSW 2089",151.2194339,-33.8291538,21,290.238371800004,0.000119102918499926,"2016-6-1"
"Lot 2 Lake Entrance Road, Oak Flats NSW 2529",150.8225386,-34.5707071,19,935.515337975721,0.00171404347199944,"2016-6-1"
"1418 Pittwater Rd, Narrabeen NSW 2101",151.2972371,-33.7135062,12,622.379817418548,0.000230352875500069,"2016-6-1"
"45 Lane Cove Rd & Myra Ave, Ryde NSW 2112",151.1100007,-33.8072734,29,132.000259410014,0.000115787566999787,"2016-6-1"
"65-99 Hume Highway, Canley Vale NSW 2166",150.9606301,-33.8929469,56,294.171166070734,6.19456385000327e-05,"2016-6-1"
"378 Pacific Hwy (Cnr Allison Ave), Lane Cove NSW 2066",151.1768514,-33.814049,34,340.080059986705,0.000135248292000005,"2016-6-1"
"306-312 Forest Road (Cnr Fredrick St), Bexley NSW 2205",151.1282405,-33.9465485,63,230.115203943392,3.39882464999761e-05,"2016-6-1"
"250 Burns Bay Road, Lane Cove NSW 2066",151.1517333,-33.8171127,38,369.207675120136,0.000167575370500045,"2016-6-1"
"436-438 The Horsley Dve (Cnr Polding St), Fairfield NSW 2165",150.9536995,-33.8637965,55,627.227025608718,0.000152437220999989,"2016-6-1"
"920 Richmond Rd, Marsden Park NSW 2765",150.8429966,-33.715728,13,2251.88671185086,0.00136447373349975,"2016-6-1"
"188-190 Pennant Hills Rd, Thornleigh NSW 2120",151.0850239,-33.7250345,19,343.345560340477,0.00013162291150018,"2016-6-1"
"26-28 Georges River Rd (Cnr Carvers Rd), Oyster Bay NSW 2225",151.0871717,-34.0015426,38,2256.69587912878,0.000595168466999991,"2016-6-1"
"198 Harbord Rd (Cnr Winbourne Rd), Brookvale NSW 2100",151.2794631,-33.7633387,20,350.506122276457,8.98475291480927e-05,"2016-6-1"
"297-299 Bunnerong Road, Pagewood NSW 2035",151.228436,-33.9407211,34,1069.01149763805,0.000306206030847088,"2016-6-1"
"1 Macquarie Place Haywards Bay, Yallah NSW 2530",150.7856005,-34.5412481,13,1193.86836546051,0.00228836442649954,"2016-6-1"
"484 Sunnyholt Road, Parklea NSW 2768",150.9218113,-33.7292969,25,1689.50424607465,0.000525042457499945,"2016-6-1"
"179-181 Mona Vale Rd, St Ives NSW 2075",151.1575445,-33.731211,16,64.148438097596,0.000277008913999909,"2016-6-1"
"2 Avalon Pde (Cnr Barrenjoey Rd), Avalon Beach NSW 2107",151.3303132,-33.6364215,7,978.277829134453,0.000536269953742857,"2016-6-1"
"274-276 Grand Parade (Cnr Ramsgate Rd), Ramsgate NSW 2217",151.1472801,-33.9853676,35,654.764997609345,0.00106292210191872,"2016-6-1"
"955 Pacific Highway (Cnr Yallambee Rd), Berowra NSW 2081",151.1476108,-33.6281779,5,162.926365962714,0.00194142171599998,"2016-6-1"
"279-287 Princes Highway, Bulli NSW 2516",150.9120882,-34.3365111,12,145.754643595777,0.000293908372998866,"2016-6-1"
"26-30 King Street, Warrawong NSW 2502",150.8869322,-34.482786,17,109.856732999259,0.000195037920999893,"2016-6-1"
"19 Davies Road, Padstow NSW 2211",151.0376922,-33.9484809,44,147.956473383785,4.80455789999515e-05,"2016-6-1"
"959-961 Anzac Pde, Maroubra NSW 2035",151.2407728,-33.9499291,30,778.435560021182,NA,"2016-6-1"
"295 Woodville Rd, Guildford NSW 2161",150.9969202,-33.8507323,60,285.199713297961,6.65899984999614e-05,"2016-6-1"
"218 John St (Cnr Cumberland Hwy), Cabramatta NSW 2166",150.92207,-33.8934002,55,576.799779600277,7.48541285000404e-05,"2016-6-1"
"88-90 Great Western Highway, Colyton NSW 2760",150.7953305,-33.7754732,21,2103.52385576286,0.000871647857000121,"2016-6-1"
"18 Parramatta Road, Lidcombe NSW 2141",151.0592478,-33.853927,43,947.695338731068,0.000242848380499803,"2016-6-1"
"124-126 Johnston Street, Annandale NSW 2038",151.1706799,-33.8808348,58,1026.24254757773,0.000238132021500123,"2016-6-1"
"213-253 Parramatta Rd & Walker St, Five Dock NSW 2046",151.1147333,-33.8699789,57,910.576308967454,0.000228085310999678,"2016-6-1"
"9 Albert Rd, Strathfield NSW 2135",151.0924193,-33.8706519,49,714.708482853161,0.000171529081500024,"2016-6-1"
"396-404 Forest Road, Hurstville NSW 2220",151.0990431,-33.9648828,59,843.032705895756,0.000222881323500211,"2016-6-1"
"884-888 Hume Hwy (Cnr Strickland St), Bass Hill NSW 2197",150.9974773,-33.8995507,52,223.344126557506,3.73777790001799e-05,"2016-6-1"
"1032-1036 Victoria Rd, West Ryde NSW 2114",151.0852027,-33.8074717,38,166.707895275641,0.000204448964999985,"2016-6-1"
"112 Rookwood (Cnr Brunker) Rds, Yagoona NSW 2199",151.0370842,-33.8985197,60,84.8728737209527,4.60258629999331e-05,"2016-6-1"
"311 Great Western Highway, Lawson NSW 2783",150.4260376,-33.7219274,2,2407.81725858664,0.0181565584124959,"2016-6-1"
"194-206 Pacific Hwy, Hornsby NSW 2077",151.0991475,-33.7071996,19,485.286413773977,0.000160209863999872,"2016-6-1"
"1355 Princess Hwy (Cnr Oliver Rd), Heathcote NSW 2233",151.0070655,-34.0877903,5,74.9415702011553,9.60767279999984e-05,"2016-6-1"
"867-869 South Dowling Street, Waterloo NSW 2017",151.2143868,-33.9018561,57,569.608070715518,0.000107932251499884,"2016-6-1"
"199-203 Kissing Point Rd (Cnr Kirby St), Dundas NSW 2117",151.0470064,-33.7986945,42,585.1933360718,0.000120837351000061,"2016-6-1"
"338-340 Hume Highway, Liverpool NSW 2170",150.9176754,-33.9314498,39,386.353646530876,0.000110581934999854,"2016-6-1"
"247 Banks Drive (Cnr Mamre Rd), St Clair NSW 2759",150.7715784,-33.7882833,13,772.903887695924,0.00277437641349974,"2016-6-1"
"387-427 Wattle (Cnr Kelly St), Ultimo NSW 2007",151.1967537,-33.8814237,50,822.05764760624,0.000361540993500579,"2016-6-1"
"562-572 Botany Rd, Alexandria NSW 2015",151.200079,-33.9157746,55,773.313483438081,0.000158270904499946,"2016-6-1"
"877-879 Pacific Hwy, Chatswood NSW 2067",151.1804716,-33.7917168,36,1330.63068201433,0.000228623440999948,"2016-6-1"
"74 Roberts Road, Greenacre NSW 2190",151.0664131,-33.8923237,62,225.965581320613,4.88219299999587e-05,"2016-6-1"
"470 Princes Hwy (Cnr The Boulevarde), Gymea NSW 2232",151.0831807,-34.0278268,20,263.20918049332,6.87779160000372e-05,"2016-6-1"
"100 Briens Road, Northmead NSW 2152",150.9895831,-33.795989,46,1042.37478975642,0.000307360720000011,"2016-6-1"
"4 Ryde Rd, Hunters Hill NSW 2110",151.1416883,-33.831792,40,1081.25491344343,0.000246059060500141,"2016-6-1"
"Merrylands Road & Braeside St, Greystanes NSW 2145",150.9663485,-33.8315303,58,335.951755727499,0.000153766551000039,"2016-6-1"
"99 Parraweena Rd (Cnr Taren Point Rd), Miranda NSW 2228",151.1200922,-34.0262979,24,649.303308864805,8.7253267999939e-05,"2016-6-1"
"275 Lane Cove Rd, North Ryde NSW 2113",151.1171154,-33.7955339,34,439.474138697892,5.24490209998877e-05,"2016-6-1"
"39- 51 Victoria Rd, Drummoyne NSW 2047",151.1589382,-33.8560441,43,46.556202823691,0.000111830639499843,"2016-6-1"
"293 Camden Valley Hwy (Cnr Grahams Hill Rd), Narellan NSW 2567",150.7326882,-34.0411702,12,176.833679068105,0.000250751061000145,"2016-6-1"
"611 Great Western Hwy (Cnr Brabham Drv), Eastern Creek NSW 2766",150.8707665,-33.7930643,22,1409.30294516022,0.000455037372000041,"2016-6-1"
"37 Elizabeth St (Cnr Victoria St), Wetherill Park NSW 2164",150.8995603,-33.8458699,24,440.874874072619,0.00041534986900031,"2016-6-1"
"120-138 Birrell Street, Bondi Junction NSW 2022",151.248617,-33.8955829,41,637.789987033857,6.63109935870362e-05,"2016-6-1"
"244 Hawkesbury Valley Way, Clarendon NSW 2756",150.7890621,-33.6085177,10,2179.26611741159,0.00121511887699967,"2016-6-1"
"102-108 Taren Point Road, Taren Point NSW 2229",151.1219985,-34.0202308,31,46.6748476047781,0.00046247582899994,"2016-6-1"
"Cowpasture Rd & Green Valley, Green Valley NSW 2168",150.8588,-33.8919066,23,275.052105583915,0.000833783234500068,"2016-6-1"
"650-652 Hoxton Park Rd, Hoxton Park NSW 2171",150.8489548,-33.9253198,20,72.5272957183426,5.26908154998749e-05,"2016-6-1"
"308-310 Parramatta Road, Stanmore NSW 2048",151.1643351,-33.8884242,64,547.113323743438,0.000102627931000113,"2016-6-1"
"252 Princes Highway, Albion Park NSW 2527",150.8022336,-34.5676634,13,102.887980164441,0.000722597332500172,"2016-6-1"
"1389 Camden Valley Way, Leppington NSW 2179",150.8128577,-33.9707082,8,537.1327651473,0.00148496829350027,"2016-6-1"
"132-136 Sunnyholt Road, Blacktown NSW 2148",150.9146184,-33.7538806,36,72.4510869335082,9.01034805001642e-05,"2016-6-1"
"54 Alison Road, Randwick NSW 2031",151.2341611,-33.9080734,49,261.251953750658,3.72270155444261e-05,"2016-6-1"
"115 Heathcote Rd, Wattle Grove NSW 2173",150.9472453,-33.9466181,24,1165.76959471211,0.0022359653054998,"2016-6-1"
"1181 The Horsley Drive, Wetherill Park NSW 2164",150.9010633,-33.8496416,30,440.874874072619,0.000235886320500079,"2016-6-1"
"665-671 Warringah Rd (Cnr Cook St), Forestville NSW 2087",151.2186119,-33.7603227,18,393.348196912387,0.000592191473999496,"2016-6-1"
"241 Waterworth Drive, Mount Annan NSW 2567",150.7602696,-34.0494309,14,292.127953164401,0.00086486060150001,"2016-6-1"
"746-752 Richmond Road, Berkshire Park NSW 2765",150.7997035,-33.6645868,5,247.041789041443,0.00112575831350008,"2016-6-1"
"61-63 Cowper Wharf Rd (Cnr Dowling St), Woolloomooloo NSW 2011",151.2213098,-33.8696027,40,1221.04688819116,0.000655088709999803,"2016-6-1"
"130 Cormorant Rd (Po Box 222), Kooragang NSW 2304",151.7634837,-32.8825364,20,1980.18859768447,0.00426411817421234,"2016-6-1"
"73 Pembroke Rd (Cnr Durham St), Minto NSW 2566",150.8502626,-34.0230315,20,968.282372882459,0.000332051060999795,"2016-6-1"
"386 Pennant Hills Rd, Pennant Hills NSW 2120",151.0680594,-33.7392914,21,521.822383879387,0.000298315939000229,"2016-6-1"
"137-141 Kingsgrove Road, Kingsgrove NSW 2208",151.0990859,-33.9327847,73,771.994035071147,0.000124515789999984,"2016-6-1"
"227 Military Rd, Cremorne NSW 2090",151.226498,-33.8303101,16,483.91027753977,7.62282119999951e-05,"2016-6-1"
"832 Bringelly Road, Rossmore NSW 2557",150.7701315,-33.9454067,4,4804.85706599917,0.00568847522049969,"2016-6-1"
"21 Ryde Rd, Pymble NSW 2073",151.1439048,-33.7519745,20,1812.83286950023,0.00049644385899993,"2016-6-1"
"294 Princess Hwy, Carss Park NSW 2221",151.11782,-33.9820023,49,205.076741772169,6.06432814998321e-05,"2016-6-1"
"678 The Horsley Drv (Cnr Cumberland Hwy), Smithfield NSW 2164",150.9400217,-33.8537341,55,368.201071511607,5.34124289999202e-05,"2016-6-1"
"38-46 Victoria Rd, Drummoyne NSW 2047",151.1593072,-33.8557588,43,46.556202823691,0.000131629855500085,"2016-6-1"
"269-275 Princes Highway, Corrimal NSW 2518",150.8963512,-34.3751906,20,47.6882936431145,3.51839545000698e-05,"2016-6-1"
"93-99 Argyle Street, Picton NSW 2571",150.6115448,-34.1685559,3,2242.89314211624,0.00649913704099913,"2016-6-1"
"575-581 Great Western Highway, Faulconbridge NSW 2776",150.5374614,-33.6941786,4,966.111028915557,0.0127748431649991,"2016-6-1"
"277-281 Princes Highway, Carlton NSW 2218",151.1272728,-33.9748579,46,101.653298009247,4.87935735000587e-05,"2016-6-1"
"835 King Georges Road, South Hurstville NSW 2221",151.1054985,-33.9785931,52,130.571005449554,5.39813219998757e-05,"2016-6-1"
"630-634 Liverpool Road, Strathfield South NSW 2136",151.0711346,-33.88688,60,254.412195843626,0.000185398132500002,"2016-6-1"
"152-158 Princes Hwy, Dapto NSW 2530",150.7923242,-34.4961776,5,599.100468094766,0.0118834749780003,"2016-6-1"
"88 Victoria Rd (Cnr Buller St), Parramatta NSW 2150",151.0153888,-33.8087395,48,996.603549902219,0.000214451880000219,"2016-6-1"
"616-626 Willoughby Rd (Cnr Penkivil St), Willoughby NSW 2068",151.1989154,-33.8058962,32,474.610425361487,0.000195722431999831,"2016-6-1"
"2-6 General Holmes Drive, Brighton-Le-Sands NSW 2216",151.1575677,-33.9579238,44,467.018708688329,0.000451597526438823,"2016-6-1"
"48-56 Gardeners Road, Kingsford NSW 2032",151.2257041,-33.9250188,49,607.189368185561,0.000175673164999977,"2016-6-1"
"100 Princes Hwy Cnr Browns Rd, South Nowra NSW 2541",150.6029515,-34.9051689,8,1167.55090031537,0.00134774119399996,"2016-6-1"
"427 Bungarribee Road, Doonside NSW 2767",150.8762699,-33.7729236,32,1029.06523358129,0.000294906594000282,"2016-6-1"
"398 Merrylands Rd (Cnr Fowler Rd), Merrylands NSW 2160",150.9775544,-33.8342601,54,715.900994187553,0.000137237006000123,"2016-6-1"
"111 Berowra Waters Rd, BEROWRA HEIGHTS NSW 2082",151.1416419,-33.6155463,5,30.1759966894111,0.00485983511700013,"2016-6-1"
"9-11 Roberts Road, Greenacre NSW 2190",151.0667049,-33.8943463,66,225.965581320613,4.7653786000047e-05,"2016-6-1"
"369-371 Pennant Hills Rd, Pennant Hills NSW 2120",151.073646,-33.7387005,22,521.822383879387,0.000397171221999843,"2016-6-1"
"139 Great Western Highway (Corner Layton Avenue), Blaxland NSW 2774",150.6098266,-33.7441113,8,151.62187651131,0.00273375301199952,"2016-6-1"
"157 Penshurst street, Willoughby NSW 2068",151.1981429,-33.7980338,37,512.210149393522,0.00017687189050016,"2016-6-1"
"43 Panmure Rd (Cnr Windsor Road), Rouse Hill NSW 2155",150.9163622,-33.6828426,10,2141.36434231088,0.00181124558100017,"2016-6-1"
"Mulgoa Road & Wolseley Road, Jamisontown NSW 2750",150.6543287,-33.806537,4,2282.78191719685,0.00292534913099961,"2016-6-1"
"96 Wicks Road, North Ryde NSW 2113",151.1267945,-33.794141,37,512.087386631357,5.83163875000086e-05,"2016-6-1"
"612 Forest Road, Penshurst NSW 2222",151.0792275,-33.961504,58,942.455633057577,0.000139760359499929,"2016-6-1"
"22 Stanmore Road (Corner Fotheringham Street), Enmore NSW 2042",151.1698906,-33.8992721,68,600.902435595484,7.26308860000424e-05,"2016-6-1"
"231-235 Great North Road, Five Dock NSW 2046",151.1300026,-33.8648839,54,591.188230853797,0.000284083308500285,"2016-6-1"
"12 Hawkesbury Valley Way, Windsor NSW 2756",150.8122158,-33.6117931,8,1235.12185190534,0.000757986144500498,"2016-6-1"
"286-288 Pennant Hills Rd (Cnr Adderton Rd), Carlingford NSW 2118",151.0435789,-33.7848985,30,290.320320787484,0.000103226754499782,"2016-6-1"
"118 Coxs Road, North Ryde NSW 2113",151.1303335,-33.8014883,40,878.379608053509,0.000357219494499918,"2016-6-1"
"Weakleys Dr Cnr Balook Dr, Beresfield North NSW 2322",151.6340839,-32.8027696,10,839.939048869821,0.000143344923999848,"2016-6-1"
"2-4 Kippax St, Greystanes NSW 2145",150.9379245,-33.8279127,38,1646.85362429426,0.00063814599549988,"2016-6-1"
"450 Great Western Hw, Faulconbridge NSW 2776",150.5478807,-33.6942982,5,966.111028915557,0.00258228408200119,"2016-6-1"
"2140 The Northern Rd, Luddenham NSW 2745",150.6934291,-33.8834438,2,1084.30887548072,0.00577019098300046,"2016-6-1"
"162 Maitland Rd, Sandgate NSW 2304",151.7061704,-32.8650429,19,1053.78525057443,0.000930478395500194,"2016-6-1"
"97-99 Wattle Road, Jannali NSW 2226",151.0674171,-34.0167138,18,1649.8714669751,0.000688184206499768,"2016-6-1"
"65 Kenyons Road, Merrylands West NSW 2160",150.968495,-33.8367807,59,470.213962023409,6.66709470000181e-05,"2016-6-1"
"126 Chapel Rd South, Bankstown NSW 2200",151.0298158,-33.9278698,62,1057.36743167376,0.000227290169999868,"2016-6-1"
"110 Anzac Parade & Goodwood Street, Kensington NSW 2033",151.2239719,-33.9072534,51,348.569540730867,8.54538045001044e-05,"2016-6-1"
"238 Pacific Highway, Lindfield NSW 2070",151.1690654,-33.7788867,33,1253.55186267589,0.000387340119999908,"2016-6-1"
"44 Hume Highway & Knight Street, Lansvale South NSW 2166",150.9643816,-33.8929219,58,347.026821750577,0.00017932808250031,"2016-6-1"
"138-142 Princes Highway, ALBION PARK RAIL NSW 2527",150.7935812,-34.5589879,13,311.429597806057,0.00011304691400031,"2016-6-1"
"102 Heathcote Road, Moorebank NSW 2170",150.9396459,-33.9382311,28,435.832670228933,0.000150220187999842,"2016-6-1"
"735 George Street, Bligh Park NSW 2756",150.7838938,-33.6364679,11,248.313836561424,0.00069594814050008,"2016-6-1"
"494 Pacific Hwy, Killara NSW 2071",151.1605034,-33.7701345,33,69.8708145441056,0.000331847861000013,"2016-6-1"
"534 Guildford Road West (Corner Fowler Road), Guildford West NSW 2161",150.9722054,-33.8514558,63,1027.75332119778,0.000251016880499879,"2016-6-1"
"307-311 Barrenjoey Road (Corner Seaview Avenue), Newport NSW 2106",151.3181679,-33.6564017,8,207.838313527059,0.00104217897199987,"2016-6-1"
"162A Spit Road (Corner Mitchell Road), Mosman NSW 2088",151.2434109,-33.8174658,16,620.253388324331,0.000428505955914065,"2016-6-1"
"184 Liverpool Road, Enfield NSW 2136",151.0977821,-33.887232,68,176.781250259607,7.23144334999611e-05,"2016-6-1"
"379 Enmore Road, Marrickville NSW 2204",151.167972,-33.9044479,63,387.700493310781,5.79843390000751e-05,"2016-6-1"
"128 Barker Street, Randwick NSW 2031",151.2356084,-33.9208814,46,630.307845063175,5.1685191945466e-05,"2016-6-1"
"320 Polding Street, Fairfield NSW 2165",150.9469779,-33.8630656,58,627.227025608718,9.08912770001595e-05,"2016-6-1"
"45 Spit Road, Mosman NSW 2088",151.2434586,-33.8230576,13,620.253388324331,0.000843228793333561,"2016-6-1"
"485 - 487 Smithfield Road, Prairiewood NSW 2176",150.9025867,-33.8711256,45,262.714388240664,0.000273715008999915,"2016-6-1"
"131 Anzac Parade & Todman Avenue, Kensington NSW 2033",151.2229186,-33.9102707,50,348.569540730867,7.94308030000239e-05,"2016-6-1"
"162 Sunnyholt Rd, Blacktown NSW 2148",150.9151625,-33.7519655,34,160.598220411441,0.00017756004800003,"2016-6-1"
"220 Port Hacking Road, Miranda NSW 2228",151.1062757,-34.0280811,25,389.819781858371,0.000290327870500038,"2016-6-1"
"61 Brown Road, Bonnyrigg NSW 2177",150.8838647,-33.896933,42,895.297749220347,0.000182113995499985,"2016-6-1"
"539 Wilberforce Rd, WILBERFORCE NSW 2756",150.8384028,-33.5630256,7,3118.54270061989,0.00189526393300051,"2016-6-1"
"345 Avoca Street, Randwick NSW 2130",151.239829,-33.9253436,42,630.307845063175,NA,"2016-6-1"
"32 Princes Hwy, Arncliffe NSW 2205",151.1521516,-33.9345892,64,51.8859317015358,0.000140080164499953,"2016-6-1"
"182 Green Valley Rd, Green Valley NSW 2168",150.8682763,-33.9023921,33,559.390418099479,0.000161029267000104,"2016-6-1"
"134-138 New England Hwy, Rutherford NSW 2320",151.5378568,-32.7201409,11,172.006974340693,0.000390995754500005,"2016-6-1"
"300 New England Highway, Rutherford NSW 2320",151.5251305,-32.7148398,10,940.236856028099,0.000665742118499721,"2016-6-1"
"12B Oatley Parade, Oatley NSW 2223",151.0791437,-33.9823281,35,1397.960111698,0.000508177444000321,"2016-6-1"
"198 Parramatta Road (Corner Pyrmont Bridge Road), Camperdown NSW 2050",151.1822336,-33.8855798,59,1191.40180871565,0.000242576522999689,"2016-6-1"
"192-198 The Kingsway, Woolooware NSW 2230",151.1335659,-34.046334,15,978.512145889408,0.000131488999806955,"2016-6-1"
"8 - 10 Crystal Street, Petersham NSW 2049",151.1584302,-33.8887037,64,202.505648403589,5.93714024999642e-05,"2016-6-1"
"367 The Kingsway (Corner Willarong Road), Caringbah NSW 2229",151.1203458,-34.0393327,18,801.325897740219,0.000188486685999949,"2016-6-1"
"18 Solander Road, Kings Langley NSW 2147",150.9435594,-33.7560684,33,1376.60602048716,0.000405481224000108,"2016-6-1"
"327 Eastern Valley Way, Castle Cove NSW 2069",151.2008775,-33.7848737,26,191.809847560503,0.000204571621500098,"2016-6-1"
"83 Byamee Street, Dapto NSW 2530",150.7988257,-34.496616,6,599.100468094766,0.00028811850100013,"2016-6-1"
"28 Princes Highway, Arncliffe NSW 2205",151.1525355,-33.934248,63,51.8859317015358,0.000165593510000055,"2016-6-1"
"99 Railway Street (Corner Frederick Street), Rockdale NSW 2216",151.1356808,-33.9524749,59,764.982489792218,8.3296802500191e-05,"2016-6-1"
"Shop 1, 135-137 Popondetta Road, Emerton NSW 2770",150.8102247,-33.7446389,22,1400.88637771955,0.000489425226000226,"2016-6-1"
"293 West Botany Street (Corner Bestic Street), Rockdale NSW 2216",151.1484667,-33.9499614,51,786.466041104303,0.000154822272499942,"2016-6-1"
"Cnr Russell & Terry Street, Albion Park NSW 2527",148.221353,-35.300041,4,270.855974209526,0.000460115164499566,"2016-6-1"
"47 Princes Highway, Fairy Meadow NSW 2519",150.8925364,-34.3939969,24,546.740672857994,0.000129808467999932,"2016-6-1"
"222 King Georges Rd (Cnr Canarys Rd) (Opn 30/6/16), Lakemba NSW 2195",151.0736108,-33.9336163,64,65.2937330892293,9.97692229999086e-05,"2016-6-1"
"792-794 Canterbury Road Chapel Street, Belmore NSW 2192",151.0872585,-33.925657,78,894.463320354697,0.000104080248999942,"2016-6-1"
"736 Princes Highway & President Avenue, Kogarah NSW 2217",151.1375866,-33.9641162,49,105.767237377585,3.20993380000346e-05,"2016-6-1"
"291 Rooty Hill Road North, Plumpton NSW 2761",150.8404348,-33.7535721,21,1136.81022518614,0.000419234923000131,"2016-6-1"
"261-265 Princes Highway, Bulli NSW 2516",150.9132751,-34.335641,12,145.754643595777,0.00108377983150022,"2016-6-1"
"275-277 Princes Highway, Corrimal NSW 2518",150.8960047,-34.3755104,20,47.6882936431145,0.000187266104999876,"2016-6-1"
"273 Parramatta Rd, Haberfield NSW 2045",151.1287355,-33.8750322,57,224.204937036261,5.11922370000865e-05,"2016-6-1"
"411-417 Clenveland St, Redfern NSW 2016",151.213301,-33.8918474,52,266.65165951601,8.10772425001324e-05,"2016-6-1"
"242 Parramatta Road, Homebush NSW 2140",151.0764052,-33.8617091,47,584.495290584174,0.000191987260999845,"2016-6-1"
"281 Hawkesbury Rd, Winmalee NSW 2777",150.5997763,-33.6823561,3,2723.1605380634,0.00631427863149925,"2016-6-1"
"69 Richmond Road, Blacktown NSW 2148",150.9024452,-33.7638661,37,524.220380512711,0.00012708836149988,"2016-6-1"
"69 Hoxton Park Road, Liverpool NSW 2170",150.9107378,-33.9270784,44,438.793736677524,6.32727905000357e-05,"2016-6-1"
"651 Princes Highway, Rockdale NSW 2216",151.1377014,-33.9591628,52,453.991329490315,6.09032469999922e-05,"2016-6-1"
"948-950 Canterbury Rd, Roselands NSW 2196",151.0780977,-33.9282478,77,682.035393308086,7.92708804999747e-05,"2016-6-1"
"20 Burwood Rd, Concord NSW 2137",151.1053364,-33.86754,50,383.983781092384,0.000214195653000053,"2016-6-1"
"387 New England Highway, Rutherford NSW 2320",151.5075349,-32.7079834,8,894.233902140429,0.00103448062600092,"2016-6-1"
"32-36 Woodpark Rd, Woodpark NSW 2164",150.9633347,-33.8410479,59,672.427868432933,0.00013711177000002,"2016-6-1"
"125 Princes Highway & Fowles Road, Dapto NSW 2530",150.8017934,-34.748284,3,1456.35072761854,0.00859501435049913,"2016-6-1"
"138-146 Princes Highway, Corrimal NSW 2518",150.8977366,-34.369918,17,598.605381689009,0.000215917150000198,"2016-6-1"
"162 - 166 Pioneer Road, Towradgi NSW 2518",150.9064844,-34.3841162,19,272.784536768881,0.00070387634649108,"2016-6-1"
"Lot 1 Ben Lomond Road, Minto NSW 2566",150.850265,-34.0322558,23,226.445433612159,0.00102581522149968,"2016-6-1"
"575-585 Liverpool Road, Strathfield South NSW 2136",151.073798,-33.8874517,63,103.905794773671,6.43888790000965e-05,"2016-6-1"
"45 Georges River Road, Croydon Park NSW 2133",151.1114344,-33.8943808,72,611.030989765553,0.000128104575500181,"2016-6-1"
"Corner Hoxton Park & Websters Roads, Lurnea NSW 2170",150.8569347,-33.9270472,28,762.330341993658,0.000212364795000141,"2016-6-1"
"110 Gymea Bay Rd (Cnr 337-339 President Avenue), Gymea NSW 2227",151.0848847,-34.0373199,21,491.110005933203,0.00104921414613766,"2016-6-1"
"924 Victoria Rd, WEST RYDE NSW 2114",151.0934931,-33.8109474,30,99.8610343288031,4.85449105000565e-05,"2016-6-1"
"99 Balgownie Road, Balgownie NSW 2519",150.880854,-34.3892562,25,1196.10587199446,0.00458930922999932,"2016-6-1"
"919 Victoria Road (Corner Hermitage Road), West Ryde NSW 2114",151.093208,-33.8091796,30,152.099977734838,3.87263945000308e-05,"2016-6-1"
"326-328 Blaxland Road, Ryde NSW 2112",151.1003356,-33.8025134,29,777.170477814306,0.00011009276050005,"2016-6-1"
"90 Blacktown Road, Blacktown NSW 2148",150.9200236,-33.7790132,40,429.320038781016,0.000157439893000104,"2016-6-1"
"274 Georges River Rd, Croydon Park NSW 2233",151.1031893,-33.8968278,77,200.03897973343,0.000159023151500131,"2016-6-1"
"1443 Elizabeth Drive, Kemps Creek NSW 2178",150.791629,-33.879602,5,253.151574927065,0.00020941457900044,"2016-6-1"
"155 Pennant Hills Rd, Normanhurst NSW 2076",151.0900699,-33.7245245,19,471.080380285484,0.000326172803999891,"2016-6-1"
"22 Charlotte Street, Ashfield NSW 2131",151.1256877,-33.886463,68,582.303510584804,7.63400845000601e-05,"2016-6-1"
"301-305 Hume Highway & Boronia Road, Greenacre NSW 2190",151.0418969,-33.905108,64,564.713318327233,0.000149846699500092,"2016-6-1"
"896A Woodville Rd, Villawood NSW 2163",150.9760272,-33.8838909,58,709.852041078271,0.000162132734000246,"2016-6-1"
"119 Towradgi Road, Towradgi NSW 2518",150.9035258,-34.3842912,19,272.784536768881,9.36531570001393e-05,"2016-6-1"
"90-92 Great Western Highway, Medlow Bath NSW 2780",150.2823142,-33.6786016,5,3886.28282669042,0.0258839462215001,"2016-6-1"
