"Address","lon","lat","nr_5km","dist_1","area_voronoi","eventDate"
"105 Station Rd Cnr Powers St, Seven Hills NSW 2147",150.94482,-33.774473,42,612.138932780493,1235152.64123905,"2016-6-1"
"Yangan Avenue, Beresfield NSW 2322",151.6291077,-32.8090705,9,839.939048869821,37612407.1520834,"2016-6-1"
"M1 Southbound, Wyong NSW 2259",151.4053935,-33.2540903,9,342.585633284487,44837333.774601,"2016-6-1"
"741 George St, Windsor South NSW 2756",150.7839799,-33.6387055,11,248.313836561424,8849239.05879784,"2016-6-1"
"1285-1289 Canterbury Rd Cnr Duncan, Punchbowl NSW 2196",151.0596341,-33.9314597,66,1135.62265116741,2722523.81294227,"2016-6-1"
"150-152 Pacific Hwy, Tuggerah NSW 2259",151.4205961,-33.2992758,13,34.6782127452117,788112.432365537,"2016-6-1"
"2 Bridges Rd Cnr Newbridge Rd, Moorebank NSW 2170",150.93273,-33.9283774,41,885.974526565336,1880903.3366025,"2016-6-1"
"637 Forest Road, Peakhurst NSW 2210",151.0687546,-33.9583766,53,118.582734959548,403502.50156939,"2016-6-1"
"111-121 Falcon St, Crows Nest NSW 2065",151.2060304,-33.8286801,27,951.666703527511,5705684.34816968,"2016-6-1"
"103 Sydemham Road, Marrickville NSW 2204",151.163393,-33.9101975,59,350.244542414951,643161.815694451,"2016-6-1"
"6-8 Queen Elizabeth Dr, Armidale NSW 2350",151.6511207,-30.5035046,12,611.959649812868,32820016.9636833,"2016-6-1"
"16-38 Military Rd, Neutral Bay NSW 2089",151.2162998,-33.8290796,22,290.238371800004,2350087.58852309,"2016-6-1"
"Menai Rd Cnr Carter Rd, Menai NSW 2234",151.0152707,-34.0179087,5,4129.14163337119,44530022.9596369,"2016-6-1"
"172-174 Princes Highway, Albion Park Rail NSW 2527",150.7955406,-34.56128,13,311.429597806057,1617132.18724348,"2016-6-1"
"66-68 Cessnock Road, Neath NSW 2326",151.4141312,-32.826152,8,1989.98783371056,18644410.5016841,"2016-6-1"
"237 Union St Cnr Three Chain Rd, Lismore South NSW 2480",153.2647394,-28.8204918,19,932.137542547845,80957984.4118598,"2016-6-1"
"351-357 Stoney Creek Rd, Kingsgrove NSW 2208",151.0924768,-33.9513534,69,985.964751359543,2186044.58870992,"2016-6-1"
"96 Centre St, Casino NSW 2470",153.0451922,-28.8654807,12,100.160790534545,193210.763705071,"2016-6-1"
"Castlereagh Rd Cnr Lugard St, Penrith NSW 2750",150.692474,-33.7405119,21,264.61251509939,10169793.5871815,"2016-6-1"
"917-923 Old Northern Rd, Dural NSW 2158",151.0287492,-33.6831208,9,1259.58959070941,15883452.5562502,"2016-6-1"
"38 Abbott Rd, Seven Hills NSW 2147",150.9548624,-33.7668381,37,431.752026316019,2110032.71826035,"2016-6-1"
"1163 Mamre Rd, Kemps Creek NSW 2178",150.7966309,-33.8696993,4,1036.24255331975,24588412.4063567,"2016-6-1"
"66 Oxford St, Gateshead NSW 2290",151.6835265,-32.9783366,23,1306.2594150169,2791505.32378697,"2016-6-1"
"244A Beardy Street, Armidale NSW 2350",151.6624053,-30.5127657,12,673.838375442745,1613901.48172396,"2016-6-1"
"153 Coreen Ave Cnr Castlereagh Rd, Penrith NSW 2750",150.6926654,-33.7428922,21,264.61251509939,1131785.9485538,"2016-6-1"
"972 Hume Highway, Bass Hill NSW 2197",150.9912877,-33.8961497,57,351.764493176736,2357315.37618191,"2016-6-1"
"228 Edgar Street, Condell Park NSW 2200",151.0125837,-33.9224335,46,696.858881815806,1500986.10517125,"2016-6-1"
"740 Hume Highway, Yagoona NSW 2199",151.0114633,-33.9048797,52,275.790893409098,1275869.70231223,"2016-6-1"
"272 Princes Highway, Bomaderry NSW 2541",150.5951316,-34.8405552,9,260.869155933414,1418752.28180373,"2016-6-1"
"19 The Northern Rd, Luddenham NSW 2745",150.6900898,-33.8740734,3,1084.30887548072,32338011.58478,"2016-6-1"
"125 Dora Street, Morisset NSW 2264",151.4815843,-33.1116066,8,641.214804314096,3036682.86621937,"2016-6-1"
"58 North Street, Nowra NSW 2541",150.6010854,-34.8723566,14,476.466116574751,3267049.31085902,"2016-6-1"
"1 Dunn Road, Smeaton Grange NSW 2567",150.7563412,-34.0327499,11,1492.01912642267,3681528.5053587,"2016-6-1"
"27-29 Amy Steet, Regents Park NSW 2143",151.0268751,-33.8837053,61,510.795420419895,1808867.30056104,"2016-6-1"
"155-165 Chanter St, Berrigan NSW 2712",145.8015557,-35.6557616,2,1653.38858807112,351334448.090407,"2016-6-1"
"1190 Old Windsor Rd Near Miami St (, Parklea NSW 2768",150.9386529,-33.7234674,19,1689.50424607465,4987627.11727285,"2016-6-1"
"17 Mount St, Mount Druitt NSW 2770",150.8244953,-33.7656167,22,231.487515627106,1007473.74944472,"2016-6-1"
"36 Mulgoa Road, Regentville NSW 2745",150.6660226,-33.7750402,18,1084.58156781856,5055017.41377974,"2016-6-1"
"92 Mulgoa Road & Batt Street, Jamisontown NSW 2750",150.6795954,-33.7665561,20,504.649350753552,2695371.90510458,"2016-6-1"
"35 Alison Road, Wyong NSW 2259",151.4211007,-33.2833934,14,443.200671115574,4802627.39883995,"2016-6-1"
"481 Luxford Road, Shalvey NSW 2770",150.8052847,-33.729482,16,1034.34681517791,12471681.5770087,"2016-6-1"
"3 Railway Pde, Kogarah NSW 2217",151.1326345,-33.9624658,50,426.92792546443,936152.4409495,"2016-6-1"
"Fairlight St Cnr Ramsay Rd, Five Dock NSW 2046",151.1322258,-33.8698807,54,591.188230853797,1188185.94102633,"2016-6-1"
"Lot 6 Star Court, Cambridge Park NSW 2747",150.7182201,-33.7403997,18,1690.84332603514,8922699.40250364,"2016-6-1"
"59-63 Tudor St Cnr Gordon Ave, Hamilton NSW 2303",151.7507442,-32.9249577,28,475.984537165768,984159.174162902,"2016-6-1"
"Cnr Dunheved Rd & Henry Lawson Dr, Werrington NSW 2747",150.7389301,-33.7458349,22,396.247864588394,4911940.45010567,"2016-6-1"
"166 John St Cnr Gladstone St, Cabramatta NSW 2166",150.9285354,-33.894009,59,601.847957069678,968320.973888397,"2016-6-1"
"Wordoo St Cnr Forrester St, St Marys NSW 2760",150.7752213,-33.7529885,21,998.575308047445,4520036.73330069,"2016-6-1"
"31 Princes Hwy, Albion Park Rail NSW 2527",150.7880686,-34.5518147,13,247.327251489134,1977836.06162226,"2016-6-1"
"72-74 Clinton Street, Goulburn NSW 2580",149.7135261,-34.7572892,17,52.6520891335814,222980.043881796,"2016-6-1"
"280-286 Canley Vale Rd, Canley Heights NSW 2166",150.9241242,-33.8838593,56,416.712391161159,1371234.81451952,"2016-6-1"
"1370-1380 Camden Valley Hwy, Leppington NSW 2179",150.818266,-33.963319,9,425.062247270252,8074487.33848047,"2016-6-1"
"157 Orlando St, Coffs Harbour NSW 2450",153.1307995,-30.2896906,9,683.283927761012,1489345.95080504,"2016-6-1"
"Cnr. Glenmore Parkway & Main Street, Glenmore Park NSW 2745",150.668863,-33.789914,11,1670.6227086835,11836574.4312243,"2016-6-1"
"1618 Canterbury Road (Cnr Gow Street), Punchbowl NSW 2196",151.039866,-33.9342587,59,165.474446304499,1335796.69164163,"2016-6-1"
"625 Pittwater Road, Dee Why NSW 2099",151.282715,-33.7557896,21,881.510183223125,1677562.296972,"2016-6-1"
"163 The Boulevarde (Cnr Pery St), Fairfield Heights NSW 2165",150.9378262,-33.866546,55,619.392423673417,1222725.33567536,"2016-6-1"
"262 Byron Street, Inverell NSW 2360",151.1180885,-29.7688118,9,323.120307639817,441536.373967648,"2016-6-1"
"283 Manns Rd Cnr Merinee Rd, Gosford West NSW 2250",151.3251074,-33.4167192,10,1175.84914612627,13047339.893706,"2016-6-1"
"1/155 Prospect Highway, Seven Hills NSW 2147",150.9425493,-33.7692902,40,32.3162746234486,78495.2376075387,"2016-6-1"
"1/158 Auburn Rd, Birrong NSW 2143",151.0215165,-33.897395,56,1186.84760386982,1988393.42321603,"2016-6-1"
"126-128 Old Bathurst Road & Corner Russell Street, Emu Plains NSW 2750",150.6547009,-33.7429882,16,115.893770719461,8684811.29362617,"2016-6-1"
"234 Hamilton Road, Fairfield West NSW 2165",150.9372457,-33.8721091,55,619.392423673417,1128972.42755312,"2016-6-1"
"3 Metella Road & Corner Cornelia Road, Toongabbie NSW 2146",150.9464182,-33.7868908,42,1178.43765664599,2133653.28842376,"2016-6-1"
"217 Wentworth Avenue (Corner Bungaree Road), Pendle Hill NSW 2145",150.9578445,-33.8018388,43,248.324574211342,1566612.36781263,"2016-6-1"
"151 Prospect Hwy & Corner Station Road, Seven Hills NSW 2147",150.9427322,-33.7690421,39,32.3162746234486,319465.809548408,"2016-6-1"
"49-51 Great Western Highway, Emu Plains NSW 2750",150.6762172,-33.7465302,20,1525.18196583113,5167523.41429955,"2016-6-1"
"2 Alison Rd, Randwick NSW 2031",151.2319938,-33.9065628,48,261.251953750658,1316948.66943169,"2016-6-1"
"73-75 Dawson St, Lismore NSW 2480",153.2809598,-28.8089415,20,97.4046682999488,174010.583596408,"2016-6-1"
"161 Maybe Street, Bombala NSW 2632",149.237458,-36.9124026,2,493.736732278234,1033060837.06745,"2016-6-1"
"Docker St Cnr Edward St, Wagga Wagga NSW 2650",147.3567697,-35.1155881,20,43.8104113978199,213193.105164841,"2016-6-1"
"487 Princes Hwy, Kirrawee NSW 2232",151.0808877,-34.029236,20,263.20918049332,536844.964263678,"2016-6-1"
"57 Winnima Way, Berkeley NSW 2056",150.8462221,-34.4801808,17,725.902411745221,8747437.92562693,"2016-6-1"
"12 Verner Street, Goulburn NSW 2580",149.7176653,-34.7582597,17,344.897180194985,3205094.12223551,"2016-6-1"
"56 Leabons Lane (Corner Blacktown Road), Blacktown East NSW 2148",150.9231685,-33.7818566,40,429.320038781016,1571385.64668202,"2016-6-1"
"Corner Richmond Road & Dublin Street, Plumpton NSW 2761",145.0065616,-37.8194848,1,8097.36465686332,NA,"2016-6-1"
"54 - 56 Windsor Road, Kellyville NSW 2155",150.9569658,-33.7122416,11,193.176040634782,1638780.03211617,"2016-6-1"
"255 -257 Old Northern Road, Castle Hill NSW 2154",151.0035815,-33.734803,17,3027.81937131601,15009155.0354289,"2016-6-1"
"400 Luxford Road, Lethbridge Park NSW 2770",150.7983694,-33.7368018,18,1034.34681517791,7936937.01606059,"2016-6-1"
"240 Prospect Highway, Seven Hills NSW 2147",150.9332713,-33.7762584,39,1087.90055801578,1735691.95465893,"2016-6-1"
"132 Old Bathurst Road, Emu Plains NSW 2750",150.6559515,-33.7429741,16,115.893770719461,6056568.03818077,"2016-6-1"
"756 Pittwater Rd (Cnr West St), Brookvale NSW 2100",151.2762736,-33.7616389,20,162.459117180032,281522.272476554,"2016-6-1"
"283 Great Western Hwy (Cnr Russell St), Emu Plains NSW 2750",150.6530651,-33.7537447,18,563.905708281726,4416268.27455807,"2016-6-1"
"303 Tweed Valley Way, South Murwillumbah NSW 2484",153.4017918,-28.330914,8,747.124854011301,19846699.5526218,"2016-6-1"
"156 Pacific Highway, Watanobbi NSW 2259",151.429255,-33.2743601,15,922.841424585744,3980992.04004049,"2016-6-1"
"30 Henry Street, Penrith NSW 2750",150.7045931,-33.7541623,21,750.214240361144,1811792.89943659,"2016-6-1"
"300 Sandgate Road, Shortland NSW 2307",151.6955022,-32.8861683,26,144.117600906867,3969327.7114469,"2016-6-1"
"393 Hillsborough Road (Corner Macquarie Road), Warners Bay NSW 2282",151.6543842,-32.9659076,26,1119.60036387689,NA,"2016-6-1"
"603-611 Anzac Pde Cnr Snape St, Kingsford NSW 2032",151.237114,-33.934352,37,1030.2721204012,NA,"2016-6-1"
"86-98 Princes Hwy Cnr Central Rd, Unanderra NSW 2526",150.8451819,-34.4541917,19,43.4755627041816,8511181.58760834,"2016-6-1"
"139-141 Otho St Cnr Glen Innes Rd, Inverell NSW 2360",151.1145699,-29.7781942,9,99.187726061917,9300799.34492218,"2016-6-1"
"127 Loftus Ave, Loftus NSW 2232",151.0507778,-34.0456337,13,1828.26027735031,19281697.110817,"2016-6-1"
"99 Tweed Coast Rd, Hastings Point NSW 2489",153.5725599,-28.3692437,2,1467.00112933415,47138054.6735831,"2016-6-1"
"289 Cessnock Road, Abermain NSW 2326",151.4260359,-32.8112882,7,1672.83466280266,34961382.6132257,"2016-6-1"
"34 Wharf St (Cnr Frances St), Tweed Heads NSW 2485",153.5432378,-28.1732793,7,113.130911726291,NA,"2016-6-1"
"397 Pacific Highway, Belmont NSW 2280",151.6611819,-33.0327604,8,55.3820597520371,3464229.09135199,"2016-6-1"
"71 Minjungbal Dr, Tweed Heads South NSW 2486",153.542089,-28.1946654,9,236.853718357928,NA,"2016-6-1"
"41 - 43 Third Avenue, Blacktown NSW 2148",150.9079574,-33.7649347,37,524.220380512711,1531358.39582604,"2016-6-1"
"44 Foster St, Lake Cargelligo NSW 2672",146.3700727,-33.299256,3,198.047956726917,2245562082.83781,"2016-6-1"
"27 Woodville Rd, Granville NSW 2142",151.0040802,-33.8309899,50,650.893770217223,1103560.67776054,"2016-6-1"
"2-4 Marsh St, Armidale NSW 2350",151.6726612,-30.5032837,12,1034.90262577541,768789208.262291,"2016-6-1"
"142 Marsh St Cnr Barney St, Armidale NSW 2350",151.6676611,-30.5168864,12,479.392546332923,765478724.815498,"2016-6-1"
"New England Highway, Armidale NSW 2350",151.6391224,-30.5043366,12,813.022576047125,441071341.494312,"2016-6-1"
"238 Cumberland Rd, Auburn NSW 2144",151.023111,-33.8641186,59,942.344121377483,2055189.74558134,"2016-6-1"
"7-9 Newbridge Road, Chipping Norton NSW 2170",150.9772006,-33.9283919,41,1220.72243679546,4080083.31590065,"2016-6-1"
"940 Pittwater Road & Hawkesbury Avenue, Dee Why NSW 2099",151.2901723,-33.7491481,23,422.210357290696,837513.561993361,"2016-6-1"
"88 - 92 Clinton Street, Goulburn NSW 2580",149.7122908,-34.7565393,17,119.835735524042,125048.788493127,"2016-6-1"
"39-41 Port Stephens Rd (Cnr Bourke St), Raymond Terrace NSW 2324",151.7441304,-32.7611857,7,478.156595566649,52868424.104096,"2016-6-1"
"145 - 147 Hoskins Street, Temora NSW 2666",147.5337162,-34.4457095,5,284.268967762181,897284.290204138,"2016-6-1"
"186 Pacific Highway, Tuggerah NSW 2259",151.4223958,-33.2941545,15,124.068369257268,2787928.08488917,"2016-6-1"
"24-26 Gavenlock Road, Tuggerah NSW 2259",151.4148602,-33.3091958,12,597.988191465475,13852380.6833848,"2016-6-1"
"693 Old Princes Highway (Retank Reopens 23 Jun'16), Sutherland NSW 2232",151.0589016,-34.0297891,15,134.869902703805,1248651.47223091,"2016-6-1"
"53 Durham St, Bathurst NSW 2795",149.5848871,-33.4168435,12,63.5436226983158,1400847.08083487,"2016-6-1"
"91-93 Elsham Ave Leewood Estate, Orange NSW 2800",149.101051,-33.285294,15,411.723073446127,420048.910756886,"2016-6-1"
"68 Goldsmith St Cnr Bourke St, Goulburn NSW 2580",149.719228,-34.7505216,17,216.688329880733,24103309.570982,"2016-6-1"
"431 The Entrance Rd, Long Jetty NSW 2261",151.4827508,-33.3601584,9,230.688177094579,2257421.62714404,"2016-6-1"
"Kent St Cnr Kathleen St, Tamworth NSW 2340",150.913092,-31.1039919,19,1003.79372897821,1755565.39586152,"2016-6-1"
"Cnr Pennant Hills Rd & Parkes St, Thornleigh NSW 2120",151.0527333,-33.7767267,28,142.633859846258,2112881.72868967,"2016-6-1"
"712 Pennant Hills Road, Carlingford NSW 2118",151.0474278,-33.7635765,21,984.379729848399,1732150.3152796,"2016-6-1"
"435 Church Street, Parramatta NSW 2150",151.005607,-33.804991,47,996.603549902219,2845517.45025125,"2016-6-1"
"Cnr George St and Burdett St, Hornsby NSW 2077",151.0993995,-33.7023572,17,537.612599248412,3107719.39165926,"2016-6-1"
"175 Richmond Road, Blacktown NSW 2148",150.8917648,-33.7554983,32,1356.65307363337,3309697.03981561,"2016-6-1"
"363 Vardys Road, Kings Park NSW 2148",150.9068804,-33.7466,30,971.108906428917,2604671.0144901,"2016-6-1"
"180 Reservoir Road, Arndell Park NSW 2148",150.8971454,-33.796756,24,735.729601550484,2696727.38570946,"2016-6-1"
"62 Walters Road, Blacktown NSW 2148",150.8949673,-33.7759669,31,895.039945756413,2394815.77426752,"2016-6-1"
"369 Pacific Highway, Heatherbrae NSW 2324",151.7249819,-32.7911326,6,1050.24538221975,12651607.0432582,"2016-6-1"
"662 Main Rd Cnr Turnbull St, Edgeworth NSW 2285",151.627805,-32.9255818,15,652.248917085363,2362695.68674579,"2016-6-1"
"148 Bridges Rd, New Lambton NSW 2305",151.7137745,-32.9327832,35,440.943165226732,1943048.25097644,"2016-6-1"
"67 Shepherds Dr Cnr Macquarie Dr, Cherrybrook NSW 2126",151.044013,-33.7209745,18,2310.48190961384,9565884.53698462,"2016-6-1"
"80-84 Campbell Street, Moruya NSW 2537",150.0823744,-35.9120161,4,97.7709540865281,3323281.97691321,"2016-6-1"
"86 Cartwright Ave Cnr Woodward Cres, Miller NSW 2168",150.8827692,-33.9188409,43,1045.74818451113,2997279.42824604,"2016-6-1"
"17 Great Western Hwy, Kelso NSW 2795",149.602254,-33.4186283,13,359.426322350315,6008234.70372666,"2016-6-1"
"4467 Gywdir Highway, Jackadgery NSW 2460",152.5515656,-29.5768518,1,37129.9944835361,3734888656.37377,"2016-6-1"
"360 Flushcombe Road, Prospect NSW 2148",150.9050808,-33.7964323,35,113.394793760866,4192377.13008109,"2016-6-1"
"1004 Botany Rd., Mascot NSW 2020",151.1936435,-33.9327122,53,501.233130322394,3921785.9790448,"2016-6-1"
"315 Auburn St Cnr Bradley St, Goulburn NSW 2580",149.7233715,-34.7493998,17,399.288519630485,2541679.99418765,"2016-6-1"
"13-15 Pacific Hwy Cnr Costa Ave, Charmhaven NSW 2263",151.4974539,-33.2411496,8,1046.15664445557,8616975.09146738,"2016-6-1"
"436 Wagga Rd Cnr Dick Rd, Lavington NSW 2641",146.9702512,-36.0351863,8,102.542221611724,56175071.8911617,"2016-6-1"
"41-43 Epping Rd Cnr Wicks Rd, North Ryde NSW 2113",151.1312369,-33.7913919,38,512.087386631357,2628335.67787159,"2016-6-1"
"6 Rudd Rd, Leumeah NSW 2560",150.8299662,-34.0539028,21,1218.03552246328,4602276.88507819,"2016-6-1"
"Cobra St Cnr Brisbane St, Dubbo NSW 2830",148.6146933,-32.2550833,14,195.759519275748,1042166.70185301,"2016-6-1"
"79 Union Rd, Albury North NSW 2640",146.948833,-36.0549231,15,1179.95255694043,5486157.76435477,"2016-6-1"
"117 Seven Hills Rd, Baulkham Hills NSW 2153",150.9750732,-33.7613952,25,108.134449360761,2812652.41488683,"2016-6-1"
"736-742 Main Road, Edgeworth NSW 2285",151.6196902,-32.9245658,12,179.484548190835,802630.878371447,"2016-6-1"
"74 Bentinck Street (Cnr Russell), Bathurst NSW 2795",149.5817694,-33.4203497,12,478.544385820533,1209240.88132381,"2016-6-1"
"64-68 Sydney Rd, Kelso NSW 2795",149.606112,-33.4184418,13,166.885492589788,8666005.06709719,"2016-6-1"
"503 Lake Road, Argenton NSW 2284",151.6307282,-32.9351936,19,1100.48090243652,2357600.04225671,"2016-6-1"
"745 Main Road, Edgeworth NSW 2285",151.6212363,-32.9236072,15,179.484548190835,5181134.20036244,"2016-6-1"
"40 Richardson Rd, Raymond Terrace NSW 2324",151.7628779,-32.7559273,5,1398.81485080666,107881106.431384,"2016-6-1"
"90-94 Queen Street (Cnr Broughton Street), Campbelltown NSW 2560",150.8173509,-34.0636095,22,398.087798356751,1289513.2271117,"2016-6-1"
"5885 Tweed ValleyWay, Mooball NSW 2483",153.4916218,-28.4418108,2,1607.81479019174,96531969.8035234,"2016-6-1"
"26 Summerland Way, Kyogle NSW 2474",153.0038475,-28.6181058,2,3928.3829851284,412183917.884601,"2016-6-1"
"352-360 Clarinda St Cnr Bushman St, Parkes NSW 2870",148.1737191,-33.133229,4,149.428019820615,473268674.881271,"2016-6-1"
"68 Harold St, Macquarie Fields NSW 2564",150.8934369,-33.9855597,17,53.0390196910406,15438161.8167796,"2016-6-1"
"636-644 Woodville Rd Cnr Orchardlei, Old Guildford NSW 2161",150.9881451,-33.8665036,68,56.189951679977,599925.338610888,"2016-6-1"
"50 Bells Line Of Rd Cnr Terrace Rd, North Richmond NSW 2754",150.7199945,-33.5799748,6,231.251778767024,5939169.70503473,"2016-6-1"
"55 King St, Warners Bay NSW 2282",151.6475783,-32.9742143,25,261.609393240323,NA,"2016-6-1"
"19-25 Merimbula Drive, Merimbula NSW 2548",149.9089176,-36.8875785,3,2663.5340954977,34820579.0052624,"2016-6-1"
"81 Pacific Hwy, Charlestown NSW 2290",151.6955192,-32.9671135,25,93.0348787584571,1463881.6278373,"2016-6-1"
"98 March St Cnr East Market St, Richmond NSW 2753",150.7515394,-33.599351,7,3170.4811305261,19653150.9348559,"2016-6-1"
"5-7 Northwood Rd, Longueville NSW 2066",151.1724645,-33.8242994,35,24.8747156614676,519201.583642289,"2016-6-1"
"572 Pacific Hwy, Chatswood NSW 2067",151.178876,-33.8037004,32,768.321796638631,1579585.2703817,"2016-6-1"
"Dean St Cnr Creek St, Albury NSW 2640",146.9149201,-36.0806519,12,755.957289300826,39876643.2244118,"2016-6-1"
"354 Corner Flushcombe Road & Myrtle Street, Blacktown NSW 2148",150.9049365,-33.7954171,36,113.394793760866,1400889.3209873,"2016-6-1"
"115 Sacville St, Fairfield NSW 2165",150.9452203,-33.8727231,53,63.7718140381872,456400.659245491,"2016-6-1"
"Stockland Drive (Stockland Shopping Centre), Glendale NSW 2285",151.6444948,-32.9336523,20,966.023244122106,2288208.13708183,"2016-6-1"
"217-219 Seven Hills Road, Baulkham Hills NSW 2153",150.963514,-33.7555124,31,1179.89645427805,3242697.88020685,"2016-6-1"
"180 Sydney Road, Kelso NSW 2795",149.6194869,-33.4189839,13,1097.92472125397,44955209.8898852,"2016-6-1"
"76 Rodd Rd., Canowindra NSW 2804",148.6677098,-33.5613445,2,196.368434411071,343442868.188096,"2016-6-1"
"1509-1511 Pittwater Rd, Narrabeen NSW 2101",151.2969397,-33.704651,10,366.008133230147,7672656.82562828,"2016-6-1"
"516 Punchbowl Rd Cnr Wangee Rd, Lakemba NSW 2195",151.073278,-33.9112209,60,498.821397136436,621761.402241945,"2016-6-1"
"144 Parramatta Rd Cnr Bold Street, Granville NSW 2142",151.011088,-33.830508,54,637.612881894208,1506340.44679123,"2016-6-1"
"131 Pennant Hills Rd Cnr Bettington, Carlingford NSW 2118",151.0278917,-33.787648,32,1397.29940412932,3372052.00150566,"2016-6-1"
"Narellan Rd Cnr Maxwell Pl, Narellan NSW 2567",150.7427511,-34.0400246,11,679.928781677989,3527822.25715995,"2016-6-1"
"406 Pacific Hwy Cnr Floraville Rd, Belmont North NSW 2280",151.6623539,-33.0247783,12,282.840919794964,960001.856899261,"2016-6-1"
"96-98 Kennedy Dr Cnr Barrett St, Tweed Heads West NSW 2485",153.5230014,-28.1871503,8,2050.8900337744,37603803.0862176,"2016-6-1"
"216 Newbridge Rd, Moorebank NSW 2170",150.955237,-33.9292756,36,92.039902768949,1627222.71066427,"2016-6-1"
"228 Comur St, Yass NSW 2582",148.9138907,-34.8445805,2,477.436542453858,55492428.1353869,"2016-6-1"
"272-278 Woodville Road, Guildford NSW 2161",150.9968792,-33.8481613,58,285.199713297961,468201.942966819,"2016-6-1"
"348 Blaxcell Street, Granville NSW 2142",151.0071292,-33.857166,62,734.690783550629,1333931.08239523,"2016-6-1"
"37 Woodhouse Dr Cnr Wickfield St, Ambarvale NSW 2560",150.8019511,-34.0844365,14,778.554719345957,2023049.84840798,"2016-6-1"
"114 Taren Point Rd, Taren Point NSW 2229",151.1219291,-34.0206476,30,46.6748476047781,777359.463022709,"2016-6-1"
"414-416 Princes Hwy, Sylvania Heights NSW 2224",151.0894101,-34.0236599,24,737.994159259959,2863383.21200174,"2016-6-1"
"169-173 Malabar Rd, Coogee South NSW 2034",151.2574183,-33.9323506,29,1477.92096136583,NA,"2016-6-1"
"451 Nth Liverpool Rd, Bonnyrigg NSW 2177",150.857951,-33.8942831,24,275.052105583915,4778264.20517623,"2016-6-1"
"334-336 PARRAMATTA Road, Homebush NSW 2140",151.0681389,-33.8581667,39,859.946656644673,2904965.32733548,"2016-6-1"
"17 Forsyth Street, Wagga Wagga NSW 2650",147.3740649,-35.1142006,20,898.461581888393,2655169.96803772,"2016-6-1"
"35 Woodville Road (cnr Alpha), Chester Hill NSW 2162",150.9887218,-33.8666623,69,56.189951679977,1532850.80129716,"2016-6-1"
"150 Woodville Rd Cnr Merrylands Rd, Merrylands NSW 2160",150.9998892,-33.8384929,49,787.789281572699,816425.665267974,"2016-6-1"
"51-55 River Street, Maclean NSW 2463",153.2054879,-29.4460937,3,550.951100620179,198891865.329095,"2016-6-1"
"477-481 Port Hacking Rd, Lilli Pilli NSW 2229",151.1215625,-34.0524306,18,1298.316633921,NA,"2016-6-1"
"542 Princes Highway, Kirrawee NSW 2232",151.0760722,-34.0322173,20,454.47888549686,853042.114501245,"2016-6-1"
"529-531 Princes Highway & Bath Road, Kirrawee NSW 2232",145.31361,-38.027666,1,35535.3389641176,NA,"2016-6-1"
"397 Main Road (Corner Lowry Street), Cardiff NSW 2285",151.6562059,-32.9339267,25,815.05743289292,NA,"2016-6-1"
"100 Woolooware Rd, Woolooware NSW 2230",151.1408431,-34.052747,12,978.512145889408,NA,"2016-6-1"
"200-202 Pennant Hills Rd, Thornleigh NSW 2120",151.0834619,-33.7278414,21,343.345560340477,2028404.78367388,"2016-6-1"
"358 Hoxton Park Rd, Prestons NSW 2170",150.8817251,-33.9282285,42,66.2958623875949,1231696.60472235,"2016-6-1"
"236-238 Condamine St, Manly Vale NSW 2093",151.2673818,-33.785027,21,1136.35754983525,NA,"2016-6-1"
"532 Old Northern Road, Dural NSW 2158",151.0201585,-33.6934905,10,913.027676742019,5748019.81561011,"2016-6-1"
"159 Imlay St, Eden NSW 2551",149.9044021,-37.063241,4,139.701350869321,345751398.773475,"2016-6-1"
"316 Camden Valley Way, Narellan NSW 2567",150.7354956,-34.0410694,12,259.4770210849,1943394.58575344,"2016-6-1"
"110 Lane Cove Rd, Ryde NSW 2112",151.1137633,-33.8014733,33,728.259005717924,1132278.03562615,"2016-6-1"
"Cnr Lennox & East Market Streets, Richmond NSW 2753",150.659035,-33.752755,19,563.905708281726,2119411.56026383,"2016-6-1"
"157 Narellan Rd (Cnr Smeaton Grange Rd), Mount Annan NSW 2567",150.7602302,-34.0467975,13,292.127953164401,3590075.79062152,"2016-6-1"
"337 West Street (Cnr Ocean Beach Road), Umina NSW 2257",151.3170285,-33.5210014,6,57.017294508904,15552030.1809001,"2016-6-1"
"646 Hume Hwy, Casula NSW 2170",150.8934788,-33.9564132,30,821.328258906311,3184369.0880363,"2016-6-1"
"269 Stewart Street, Bathurst NSW 2795",149.5681035,-33.4181477,13,136.384844351117,732161.126366735,"2016-6-1"
"37 Crystal St., Petersham NSW 2049",151.1587588,-33.8905087,68,202.505648403589,668085.327346507,"2016-6-1"
"155 The Entrance Rd, Erina NSW 2250",151.3793547,-33.4382424,15,608.449141261786,4952228.82128292,"2016-6-1"
"43 Macquarie Road, Cardiff NSW 2285",151.6578283,-32.9411475,31,815.05743289292,NA,"2016-6-1"
"295-297 Merrylands Road (Corner Windsor Street), Merrylands NSW 2160",150.9851817,-33.8353294,56,627.326606686776,1387537.01581509,"2016-6-1"
"87-89 Bradley St, Guyra NSW 2365",151.6722709,-30.2172781,3,1291.86811783395,906224937.020967,"2016-6-1"
"Parkes Road, Forbes NSW 2871",148.0198154,-33.3706051,7,1183.81620040174,378771326.498868,"2016-6-1"
"132 Allambie road, Allambie Heights NSW 2100",151.2496733,-33.7650913,28,1470.90109982743,6657263.60365224,"2016-6-1"
"236-240 Georges Rive, Croydon Park NSW 2133",151.1052933,-33.8964106,77,200.03897973343,739783.705465198,"2016-6-1"
"229 Woodville Rd Cnr Lackey St, Merrylands NSW 2160",150.998349,-33.845478,55,327.243425177364,728570.878704097,"2016-6-1"
"278 Sandgate Road, Shortland NSW 2307",151.6952094,-32.8874441,27,144.117600906867,2227671.24368969,"2016-6-1"
"321 Gardeners Rd, Rosebery NSW 2018",151.2060166,-33.9229812,56,335.814858991931,1379631.14262441,"2016-6-1"
"287-295 Victoria Rd Cnr Stansell Rd, Gladesville NSW 2111",151.1268594,-33.8285504,42,792.201553110399,3066270.45012724,"2016-6-1"
"100 Hastings River Dr, Port Macquarie NSW 2444",152.8824763,-31.4291012,7,1244.04914263914,56336562.5988165,"2016-6-1"
"1344 Princes Highway, Heathcote NSW 2233",151.0071053,-34.0884651,5,74.9415702011553,18099322.2183592,"2016-6-1"
"641 King Georges Rd Cnr Percival St, Penshurst NSW 2222",151.0892215,-33.9598182,61,391.194274109644,787450.581274688,"2016-6-1"
"334-336 Parramatta Rd, Homebush NSW 2140",151.0681389,-33.8581667,39,859.946656644673,2904965.32733548,"2016-6-1"
"121 Victoria Rd Cnr Wellington St, Rozelle NSW 2039",151.1684539,-33.8625658,46,59.0660806148249,317111.275286436,"2016-6-1"
"797 Pennant Hills Rd, Carlingford NSW 2118",151.0516535,-33.7758099,28,142.633859846258,853495.008205503,"2016-6-1"
"164 Mona Vale Rd, St Ives NSW 2075",151.1570708,-33.7307893,16,64.148438097596,1507328.72218329,"2016-6-1"
"1-3 Penrhyn Rd, Banksmeadow NSW 2019",151.2169409,-33.9644296,19,1373.3441826661,NA,"2016-6-1"
"1403 Princes Hwy, Heathcote NSW 2233",151.0037378,-34.0905951,5,390.392385289341,70975885.075479,"2016-6-1"
"21 Barsden St Cnr Cawdor Rd, Camden NSW 2570",150.6914516,-34.0581183,8,803.164694016818,51202769.9966326,"2016-6-1"
"Pacific Hwy, Macksville NSW 2447",152.92012,-30.7244026,3,1282.65019010744,265301949.60844,"2016-6-1"
"146-148 Coogee Bay Rd, Coogee NSW 2034",151.2517478,-33.9198932,35,892.942780509711,NA,"2016-6-1"
"187 Wilson Road, Green Valley NSW 2168",150.8677334,-33.9074149,32,559.390418099479,2103281.7704528,"2016-6-1"
"197 Princes Hwy, Ulladulla NSW 2539",150.4711849,-35.3661842,6,391.921948485959,NA,"2016-6-1"
"66 Parker Street (Cnr Copeland St), Penrith NSW 2747",150.7126403,-33.7549137,21,750.214240361144,1987522.3070488,"2016-6-1"
"2 Rawson Road, GRANVILLE NSW 2142",151.0088363,-33.8636347,61,734.690783550629,1424581.85293064,"2016-6-1"
"30 Bridge St, Epping NSW 2121",151.0797567,-33.7747403,38,2290.92311371119,9703538.60982871,"2016-6-1"
"230 Shellharbour Rd, Warilla NSW 2528",150.8592904,-34.5570026,11,268.946516595427,2330219.24878001,"2016-6-1"
"400 Lane Cove Road, North Ryde NSW 2113",151.1284429,-33.7850497,34,749.549578547425,3448069.54047883,"2016-6-1"
"Lot 6 Princes Highway, Tomerong NSW 2540",150.5764997,-35.0500748,2,4597.86717664987,94476275.5050981,"2016-6-1"
"1-7 Buchanan St, Murwillumbah NSW 2484",153.4093121,-28.3268979,8,117.179487721929,2444098.34530985,"2016-6-1"
"75-77 King St Cnr Hoskins St, Warrawong NSW 2502",150.888815,-34.4903812,14,750.905721653278,7737726.28299403,"2016-6-1"
"22 Treelands Dr, Yamba NSW 2464",153.3280129,-29.4270834,6,1475.03798654493,75687209.3740472,"2016-6-1"
"656 The Entrance Rd, Wamberal NSW 2260",151.4375863,-33.4232852,4,1909.94831533351,13240031.7346484,"2016-6-1"
"86 Pittwater Rd, Manly NSW 2095",151.285802,-33.7930688,18,315.729569457838,NA,"2016-6-1"
"342 Kanahooka Rd, Brownsville NSW 2530",150.8065126,-34.4859248,7,1380.23878753037,37541260.2577577,"2016-6-1"
"1 Bay Street, Port Macquarie NSW 2444",152.8953403,-31.4270481,8,1031.99552968944,50320361.9435186,"2016-6-1"
"243 Pennant Hills Road, Carlingford NSW 2118",151.0456304,-33.7829195,30,290.320320787484,1163836.77529263,"2016-6-1"
"Lot 122 Dunheved Road, Werrington NSW 2747",150.7430506,-33.7467908,22,396.247864588394,5216023.86081624,"2016-6-1"
"251 The Horsley Drive, Fairfield NSW 2165",150.9627967,-33.8713727,62,781.941271903791,1747128.47251748,"2016-6-1"
"359 Pacific Highway, North Wyong NSW 2259",151.4427625,-33.2699812,16,1348.89243228517,18069984.9418826,"2016-6-1"
"127 Great Western Highway (Corner Morley Avenue), Kingswood NSW 2747",150.726562,-33.7598725,23,196.534864802489,1757854.11006808,"2016-6-1"
"15-19 Aspen Street, Penrith South NSW 2750",150.7107235,-33.7772772,20,1344.93295057367,22253884.3741767,"2016-6-1"
"271A Victoria Road, Drummoyne NSW 2047",151.1515132,-33.8472151,40,1190.9402722155,3082044.66376498,"2016-6-1"
"588 High Street, Penrith NSW 2751",150.6910665,-33.752464,22,1071.97003960008,2115690.33328974,"2016-6-1"
"98 Kurrajong Avenue, Leeton NSW 2705",146.4089547,-34.5548039,5,133.064270141149,48676709.2879702,"2016-6-1"
"37 Shellharbour Road, Lake Illawarra NSW 2528",150.8628794,-34.5450557,11,139.339213210969,1489446.45130646,"2016-6-1"
"25-27 Unumgar Street, Woodenbong NSW 2476",152.6119202,-28.3892441,2,144.393196693312,551914038.293627,"2016-6-1"
"29 Lord St, Port Macquarie NSW 2444",152.9170021,-31.4332543,9,1575.96506400413,52227642.8438976,"2016-6-1"
"3-5 Windsor Rd, Kellyville NSW 2155",150.949569,-33.7098399,10,735.587491170843,4233025.61706352,"2016-6-1"
"34 Links Ave, East Ballina NSW 2478",153.5830909,-28.8504697,7,44.0836302349251,41672085.8536124,"2016-6-1"
"3723 Sturt Hwy, Gumly Gumly NSW 2652",147.4432111,-35.1358026,4,75.8475088686236,68083126.0440674,"2016-6-1"
"603 Pacific Hwy, Mount Colah NSW 2079",151.1152181,-33.6703682,6,1700.9796178598,21172908.931095,"2016-6-1"
"191-195 Lyons Rd, Drummoyne NSW 2047",151.1460365,-33.8569905,46,1196.895492239,3154299.82558542,"2016-6-1"
"116 Victoria Rd, Gladesville NSW 2111",151.1278707,-33.8356425,47,792.201553110399,4388355.23622316,"2016-6-1"
"60-64 Windsor Parade, Dubbo NSW 2830",148.6313582,-32.2541007,14,203.551342470815,444157963.63109,"2016-6-1"
"35 William Street, Bathurst NSW 2795",149.5829172,-33.4161438,12,138.474901642164,6164318.12328064,"2016-6-1"
"Corner Shellharbour & Wattle Roads, Shellharbour NSW 2529",150.8687693,-34.578892,10,1758.6001754902,41799531.7496729,"2016-6-1"
"2 - 4 Peterborough Avenue, Lake Illawarra NSW 2528",150.8636236,-34.5438601,11,149.188713799623,6047504.11652148,"2016-6-1"
"66 Memorial Avenue, Woy Woy NSW 2256",151.3314559,-33.5070183,9,1338.98690757851,9237168.12996095,"2016-6-1"
"185 Pitt Street (Cnr O'Neil St), Merrylands NSW 2160",150.9917832,-33.8340497,51,627.326606686776,1205358.61289448,"2016-6-1"
"4 Lake Street, Windale NSW 2306",151.6831184,-32.99252,26,1034.87649635262,NA,"2016-6-1"
"59 The Crescent, Toongabbie NSW 2146",150.930009,-33.796242,37,837.678296488716,3811509.13121482,"2016-6-1"
"574 Great Western Hwy, Werrington NSW 2747",150.7568748,-33.7680706,19,139.702118055622,5551948.05653369,"2016-6-1"
"93-99 Addison Road, Marrickville NSW 2204",151.1645486,-33.9024308,71,387.700493310781,905556.139150649,"2016-6-1"
"New Lake Entrance Road (Shellharbour City Centre), Shellharbour NSW 2529",150.8309923,-34.5637313,18,1068.6671649731,7473913.02415553,"2016-6-1"
"43-57 Shellharbour Rd (Warilla Grove Shopping Centre), Warilla NSW 2528",150.8624148,-34.5462515,11,139.339213210969,2985652.39292884,"2016-6-1"
"14456 Newell Highway, Edgeroi NSW 2390",149.7997641,-30.1137781,1,20474.2612231324,1391346668.27868,"2016-6-1"
"1609 Ocean Drive, Lake Cathie NSW 2445",152.8543807,-31.5529134,2,4430.4812783109,85916694.8519151,"2016-6-1"
"115 Mann Street, Nambucca Heads NSW 2448",152.9886673,-30.6394311,2,1440.80395727745,104096153.371631,"2016-6-1"
"78 Great Western Hwy Cnr Ross St, Glenbrook NSW 2773",150.6214483,-33.7653915,9,2151.02682559743,44038580.9457526,"2016-6-1"
"Barrier Highway, Cobar NSW 2835",145.8270441,-31.496806,4,735.879965329834,19393130638.5484,"2016-6-1"
"1715 Yass Valley Way, Yass NSW 2582",148.8825199,-34.8069633,1,5064.70072185886,1054408727.53505,"2016-6-1"
"104 Great Western Highway & Bennett Road, Colyton NSW 2760",150.7282045,-33.7609939,24,196.534864802489,4296364.87351298,"2016-6-1"
"Lot 16 - 25 Great Western Highway, Eastern Creek NSW 2766",150.8416877,-33.785672,18,1152.03344264058,5684313.84582162,"2016-6-1"
"12-14 Bolwarra Rd, Port Macquarie NSW 2444",152.8868569,-31.4505533,9,2144.8209233247,39327166.8471422,"2016-6-1"
"Princes Hwy Cnr Deering St, Ulladulla NSW 2539",150.4741047,-35.3580202,6,553.994767405545,NA,"2016-6-1"
"360 Armidale Rd, East Tamworth NSW 2340",150.9613663,-31.1140768,18,2312.52407961874,19520513.2605421,"2016-6-1"
"244-248 Windang Rd, Windang NSW 2528",150.8692034,-34.5274666,8,1889.32789956668,19499573.287043,"2016-6-1"
"214 The Entrance Road, Erina NSW 2250",151.3879072,-33.4349397,12,273.068289313334,NA,"2016-6-1"
"1042 Great Western Highway, Minchinbury NSW 2770",150.8286741,-33.7822092,17,126.212124369338,654981.02478987,"2016-6-1"
"276 Miller Road, Villawood NSW 2144",150.9920889,-33.8876146,58,949.613458058484,2104961.8986665,"2016-6-1"
"53 Sydney Rd, Goulburn NSW 2580",149.7503468,-34.7488132,15,1640.06828482387,270229213.512906,"2016-6-1"
"1077 Botany Road, Mascot NSW 2020",151.1952106,-33.9283863,53,501.233130322394,577162.745657206,"2016-6-1"
"21-23 Cumberland Rd, Ingleburn NSW 2565",150.8712543,-33.9970085,24,683.472809344146,1235497.97382355,"2016-6-1"
"1766 Horsley Drive, Horsley Park NSW 2175",150.8536228,-33.8420055,10,964.206877782375,12391827.6486678,"2016-6-1"
"Lot 3 Great Western Highway (Cnr John Hines Ave), Minchinbury NSW 2770",150.8296732,-33.782983,16,126.212124369338,2033572.75176454,"2016-6-1"
"Church St Cnr Meade St, Glen Innes NSW 2370",151.7379861,-29.7383021,6,95.9484074228849,118480.203044921,"2016-6-1"
"141-151 Hume Hwy Cnr Chadderton St, Lansvale NSW 2166",150.956926,-33.8948938,56,122.57696293365,412420.976894021,"2016-6-1"
"96 Hoxton Park Rd, Lurnea NSW 2170",150.9060396,-33.9276361,44,438.793736677524,1494979.49493203,"2016-6-1"
"265-267 Lake Albert Rd, Kooringal NSW 2650",147.3755366,-35.1407736,20,1651.4723814298,6137342.94262609,"2016-6-1"
"309 Victoria Rd, Rydalmere NSW 2116",151.0371167,-33.8119597,45,485.068449457676,2565498.87334127,"2016-6-1"
"109 Gunnedah Rd, Tamworth NSW 2340",150.895551,-31.0973191,20,985.370199546743,79887409.8618038,"2016-6-1"
"125 O'riordan St, Mascot NSW 2020",151.1912026,-33.9230958,55,694.054250901517,1995560.0387503,"2016-6-1"
"Burns Bay Road, Lane Cove NSW 2066",151.1501583,-33.8250795,40,895.619709855947,2371575.04152796,"2016-6-1"
"83 Mustang Dr, Rutherford NSW 2320",151.4983689,-32.7048727,7,926.070214749483,95786309.2570127,"2016-6-1"
"341 Princes Hwy, Bomaderry NSW 2541",150.5947596,-34.8456517,10,566.416819096924,1889276.90835452,"2016-6-1"
"229 Wentworth Avenue, Pendle Hill NSW 2145",150.9559549,-33.8002502,42,248.324574211342,579219.737464204,"2016-6-1"
"26 Mitchell St, Eden NSW 2551",149.9029367,-37.0636943,4,139.701350869321,4080006.36094904,"2016-6-1"
"3 Williamtown Dr, Williamtown NSW 2318",151.8432252,-32.8116899,2,688.629489407793,NA,"2016-6-1"
"154-160 Parramatta Road & Corner Bold Street, Granville NSW 2142",151.0819655,-33.8642094,49,584.495290584174,1686111.91339111,"2016-6-1"
"36A Great Western Hwy Cnr Mt York R, Mount Victoria NSW 2786",150.2465874,-33.5844748,1,6529.24176294882,394961267.535787,"2016-6-1"
"Cnr The Horsley Dr & Mcilwraith St, Wetherill Park NSW 2164",150.8903699,-33.852561,24,867.892176989766,3192347.47831578,"2016-6-1"
"44 Sharp St Cnr Barron St, Cooma NSW 2630",149.130404,-36.233496,9,96.4451416387772,81349.0163982511,"2016-6-1"
"54 Byron Street, Bangalow NSW 2479",153.5256665,-28.6864358,2,488.131334233212,49913767.9496431,"2016-6-1"
"114-116 Church St, Mudgee NSW 2850",149.5876199,-32.5942803,9,125.028947280433,70227908.0328737,"2016-6-1"
"155-157 Princes Highway, Ulladulla NSW 2539",150.4519465,-35.335122,8,529.2494322946,19064784.0531638,"2016-6-1"
"72 Thorney Road, Fairfield West NSW 2165",150.9241641,-33.8736135,53,1136.47215559081,2725346.58303219,"2016-6-1"
"602-606 Great Western Hwy, Pendle Hill NSW 2145",150.942036,-33.8083237,40,1118.2523162858,2688020.6674034,"2016-6-1"
"2355 Camden Valley Way (Corner Beech Road), Casula NSW 2170",150.8847105,-33.9576135,29,531.120007962631,1554487.55781603,"2016-6-1"
"1962 Camden Valley Way, Edmondson Park NSW 2171",150.8576556,-33.9540165,28,2089.3888141188,6686577.77155864,"2016-6-1"
"488 Old South Head Rd Cnr Albemarle, Rose Bay NSW 2029",151.2723583,-33.8748078,15,599.912444811579,1544356.04262018,"2016-6-1"
"90 Princes Highway, Milton NSW 2538",150.4371123,-35.3170868,4,512.559940667407,15271367.3410462,"2016-6-1"
"236 Morrison Road, Putney NSW 2112",151.1084045,-33.8238745,35,1785.4077812842,4566387.8307817,"2016-6-1"
"153 Forest Way, Belrose NSW 2085",151.2212191,-33.734749,13,1266.19855411904,29618185.4375398,"2016-6-1"
"M4 Motorway Eastbound, Eastern Creek NSW 2766",150.8859626,-33.8016005,22,457.367012636335,3572114.00250018,"2016-6-1"
"M4 Motorway Westbound, Eastern Creek NSW 2766",150.8811129,-33.8023821,22,457.367012636335,4455447.5911727,"2016-6-1"
"87-91 Roberts Rd Cnr Moondo St, Greenacre NSW 2190",151.0648619,-33.9046147,62,506.02444143067,716773.916165859,"2016-6-1"
"179 Parramatta Road, Auburn NSW 2144",151.0359975,-33.8410797,50,1058.45400920456,2960937.32724425,"2016-6-1"
"340 Great Western Highway, Wentworth Falls NSW 2782",150.3601156,-33.7113143,3,4036.76674884238,173789699.067266,"2016-6-1"
"199 Great Western Highway, Katoomba NSW 2780",150.3168687,-33.7070468,4,940.281611060397,49678342.4371833,"2016-6-1"
"198 Great Western Highway, Hazelbrook NSW 2779",150.4519926,-33.7210055,2,2407.81725858664,151542071.793024,"2016-6-1"
"129 River St Cnr Woodburn St, Woodburn NSW 2472",153.3409495,-29.0719877,1,5847.55801522699,350073831.928558,"2016-6-1"
"240 Maitland Rd, Islington NSW 2296",151.7457473,-32.9113364,29,124.326181489475,556246.795681626,"2016-6-1"
"144 Wentworth Street, Port Kembla NSW 2505",150.9049148,-34.4838641,10,114.350661719622,8027682.49356043,"2016-6-1"
"67 Orange Grove Road, Liverpool NSW 2170",150.9178992,-33.9070501,55,623.608834221488,1242942.65554884,"2016-6-1"
"30-34 Princes Highway, Fairy Meadow NSW 2519",150.8941063,-34.3892431,24,546.740672857994,1194135.99562714,"2016-6-1"
"39 Vernon Street, Woollahra NSW 2025",151.2474703,-33.889913,39,637.789987033857,2488476.30790046,"2016-6-1"
"1/1 Craft Close, Toormina NSW 2452",153.0920772,-30.3416444,6,1202.16295517213,4178459.46200192,"2016-6-1"
"332-336 Shellharbour Rd, Barrack Heights NSW 2528",150.8597784,-34.5648919,11,607.395802044704,3951253.81165308,"2016-6-1"
"442A Punchbowl Road, Belmore NSW 2192",151.0769699,-33.9079424,64,498.821397136436,771989.017974019,"2016-6-1"
"1 Illabo Road, Junee NSW 2663",147.5853878,-34.8588372,3,963.48925324497,692825648.395302,"2016-6-1"
"Newell Highway, Tomingley NSW 2869",148.2788946,-32.5224265,1,24077.7823915636,1282991730.07442,"2016-6-1"
"209 Pittwater Road, Manly NSW 2095",151.2840945,-33.7874041,19,332.865008892636,NA,"2016-6-1"
"253 Princes Hwy, Albion Park Rail NSW 2527",150.8033533,-34.5676154,13,102.887980164441,3539537.62375367,"2016-6-1"
"46 Albert Street, Freshwater NSW 2096",151.2869189,-33.7773132,20,874.816087651247,NA,"2016-6-1"
"20 Waratah Street, Bendalong NSW 2539",150.5317491,-35.246506,1,10880.5492387702,NA,"2016-6-1"
"9 Flinders St, Wollongong North NSW 2500",150.8928842,-34.4150183,23,743.715656634708,NA,"2016-6-1"
"29 President Ave, Kogarah NSW 2217",151.1411846,-33.9650876,48,349.559201104452,820093.249441177,"2016-6-1"
"211-213 Anzac Parade, Kensington NSW 2033",151.225127,-33.9144578,51,507.357768460465,770062.748087659,"2016-6-1"
"425 Crown Street, Wollongong West NSW 2500",150.8798847,-34.426422,25,220.355524403317,NA,"2016-6-1"
"313 Great Western Hwy, South Wentworthville NSW 2145",150.9718311,-33.8163788,45,1328.26600463379,2895902.12574661,"2016-6-1"
"560-562 Victoria Rd Cnr Lawson St, Ermington NSW 2115",151.0547996,-33.8139726,38,1206.160582066,2875808.23485529,"2016-6-1"
"793-797 Pittwater Rd, Dee Why NSW 2099",151.2920603,-33.7456837,22,422.210357290696,3424242.39329052,"2016-6-1"
"Smithfield Rd Cnr Elizabeth Dr, Bonnyrigg NSW 2177",150.8818606,-33.8876829,36,647.445924603584,2993445.97555089,"2016-6-1"
"369-375 Concord Rd, Concord West NSW 2138",151.0888755,-33.8411078,39,2063.21622614792,6957590.41695517,"2016-6-1"
"133 Wyndham St Cnr Mcevoy St, Alexandria NSW 2015",151.2000581,-33.9020539,58,572.718640751742,1120862.72821869,"2016-6-1"
"59-61 Pacific Hwy Cnr Unwin Rd, Waitara NSW 2077",151.1023535,-33.7106584,19,485.286413773977,2440469.6051383,"2016-6-1"
"118 Old South Head Rd, Woollahra NSW 2025",151.2553451,-33.8896323,35,629.029536297054,1544700.46960208,"2016-6-1"
"176 Warringah Rd, BEACON HILL NSW 2100",151.2602279,-33.7538143,27,511.626491026735,2749482.69479102,"2016-6-1"
"404-410 Liverpool Rd, Croydon NSW 2132",151.115727,-33.8884736,66,71.0891208171642,553502.789979875,"2016-6-1"
"68 Jindabyne Rd, Berridale NSW 2628",148.8270154,-36.3653974,1,19003.5931345877,1302944734.30497,"2016-6-1"
"222 Tongarra Rd Cnr Calderwood St, Albion Park NSW 2527",150.7645618,-34.5713116,10,1111.86757458611,139141963.535715,"2016-6-1"
"2600 The Lakesway, Bungwahl NSW 2423",152.4444704,-32.3871481,1,8214.44241574802,251085437.422342,"2016-6-1"
"775 Princes Hwy, Tempe NSW 2044",151.1596833,-33.925351,65,919.413423630968,2350176.34133875,"2016-6-1"
"26 Enmore Rd, Newtown NSW 2042",151.1770483,-33.8984924,65,491.423112952473,877504.637095451,"2016-6-1"
"12-14 Berowra Waters Rd, Berowra NSW 2081",151.150554,-33.6233814,5,444.900193225259,65092947.7824454,"2016-6-1"
"95 Elizabeth Drive (Corner Park Road), Liverpool NSW 2170",150.9160168,-33.9182506,46,255.569927990105,421822.147187293,"2016-6-1"
"552 Pennant Hills Road, West Pennant Hills NSW 2125",151.0507795,-33.7468476,23,1242.21208597434,3860325.53919864,"2016-6-1"
"147 Cary St, Toronto NSW 2283",151.5927672,-33.0128966,8,113.42793417924,16264633.1457415,"2016-6-1"
"30-40 Alfred Rd, Chipping Norton NSW 2170",150.9648376,-33.924531,44,1031.98482703088,3762693.55786812,"2016-6-1"
"1 Gregory Hills Drive, Gledswood Hills NSW 2557",150.7630278,-34.0199265,10,1550.6812717858,27970863.7515972,"2016-6-1"
"271 Camden Valley Way, NARELLAN NSW 2567",150.7307572,-34.0415946,12,33.9278632136994,18077975.996886,"2016-6-1"
"477 Pacific Highway, Artarmon NSW 2064",151.1774287,-33.8105211,32,175.343441106522,653251.563122205,"2016-6-1"
"320 Lane Cove Road, North Ryde NSW 2113",151.1201707,-33.7923494,36,394.933902779,554609.721008897,"2016-6-1"
"22-26 Pearl Street, Kingscliff NSW 2487",153.5747183,-28.2562385,3,2200.63192049028,NA,"2016-6-1"
"51 Bondi Rd Cnr Park Rd, Bondi NSW 2026",151.260139,-33.8936544,33,434.752412495812,550550.642096251,"2016-6-1"
"98-100 Windsor Rd Cnr Lombard Rd, Northmead NSW 2152",150.9948813,-33.7876976,39,639.850376870217,2029067.28224675,"2016-6-1"
"321 Old South Head Rd, North Bondi NSW 2026",151.2685566,-33.8846533,21,1137.17324173186,6950695.77951145,"2016-6-1"
"363 Mona Vale Rd, St Ives North NSW 2075",151.1734779,-33.71687,12,1417.82613208915,24808120.3291908,"2016-6-1"
"740-742 Pittwater Rd, Brookvale NSW 2100",151.274532,-33.7614677,20,162.459117180032,1468857.08511651,"2016-6-1"
"115 Fairford Rd, Padstow NSW 2211",151.0341809,-33.9434142,50,502.384844253158,1328023.27807432,"2016-6-1"
"119 Bourke St Cnr Erskine St, Dubbo NSW 2830",148.6092238,-32.2433855,14,215.965393229278,910006.419949472,"2016-6-1"
"13/3 Lancester St, Ingleburn NSW 2565",150.8677304,-33.9901729,24,126.090818148217,660728.472609967,"2016-6-1"
"106 Milperra Rd, Revesby NSW 2212",151.0087156,-33.9356151,42,645.673261095386,1009501.64081502,"2016-6-1"
"18 Allandale St, Kearsley NSW 2325",151.3951061,-32.8586632,7,2550.46561789867,81192921.4817729,"2016-6-1"
"494 Forest Road, Penshurst NSW 2222",151.0901314,-33.9632625,58,391.194274109644,1330241.59703392,"2016-6-1"
"Bungendore Rd, Queanbeyan NSW 2620",149.2452522,-35.3479701,8,746.923599537145,88889124.5837998,"2016-6-1"
"3 Angaphora Drive, Warabrook NSW 2304",151.7196105,-32.8866831,29,697.321616605143,1856220.22663894,"2016-6-1"
"100 Bonnyrigg Avenue, Bonnyrigg NSW 2177",150.8887568,-33.8866866,39,647.445924603584,1337419.45923036,"2016-6-1"
"5558 Old Northern Road, Wisemans Ferry NSW 2775",150.9858127,-33.3847285,1,9193.39507770943,713223031.465439,"2016-6-1"
"1233 Pacific Highway, Turramurra NSW 2074",151.131333,-33.7332003,22,451.955859813067,2573034.16303955,"2016-6-1"
"Olympic Hwy, Culcairn NSW 2660",147.0345558,-35.6820553,2,1539.76442374136,312456069.978047,"2016-6-1"
"159 Mona Vale Rd (Cnr Putarri Av) (Clsd 16 Jun'16), St Ives NSW 2075",151.156309,-33.7326774,16,198.909044787616,3699328.68811022,"2016-6-1"
"65 Bowral Rd, Mittagong NSW 2575",150.4383185,-34.4525,8,518.527729328569,3651256.1210016,"2016-6-1"
"170 Fitzmaurice St, Wagga Wagga NSW 2650",147.3679066,-35.1028826,21,74.5627482206827,894450.361872554,"2016-6-1"
"2-6 Swan St, Bega NSW 2550",149.8381732,-36.6738789,4,500.209174288856,2441350.31591797,"2016-6-1"
"106 Princes Hwy (Cnr Tannery St), Unanderra NSW 2526",150.8451533,-34.4545829,20,43.4755627041816,3442019.31567287,"2016-6-1"
"164 Warrimoo Avenue, St Ives Chase NSW 2075",151.1599269,-33.710941,11,1114.18172686719,10526511.0653911,"2016-6-1"
"132 Maitland Road, Mayfield NSW 2304",151.7419818,-32.9017846,31,242.329905069552,944492.727319121,"2016-6-1"
"412-416 Maitland Road & Frith Street, Mayfield West NSW 2304",151.7301889,-32.8930263,33,673.425253220767,1072545.62006319,"2016-6-1"
"101 Blaxcell St, GRANVILLE NSW 2142",151.0106548,-33.8426262,53,435.110328704563,684895.815334857,"2016-6-1"
"60 Glenn Street, Belrose NSW 2085",151.2091309,-33.7400708,17,1266.19855411904,8518108.18990844,"2016-6-1"
"33351 Newell Highway, Boggabilla NSW 2409",150.3546882,-28.6068856,1,15943.3458125217,1298409452.58853,"2016-6-1"
"1579 Pacific Highway (Corner Redleaf Avenue), Wahroonga NSW 2076",151.1168053,-33.7198371,22,1344.51624269853,4588499.16277933,"2016-6-1"
"1408 Pacific Highway (Corner Duff Street), Turramurra NSW 2074",151.1264569,-33.7331262,21,451.955859813067,2361378.64146179,"2016-6-1"
"North Parade (Mt Druitt Market Place), Mount Druitt NSW 2770",150.8204224,-33.7692242,22,549.965891039801,2864695.85011351,"2016-6-1"
"Jersey Road (Plumpton Market Place), Plumpton NSW 2761",150.8356889,-33.7441208,19,979.435119378,2420379.99626896,"2016-6-1"
"254a Richardson Street, Spring Farm NSW 2570",150.7297086,-34.0685207,12,2960.49274915522,23178262.7402673,"2016-6-1"
"315 Auburn Street, Goulburn NSW 2580",149.7233715,-34.7493998,17,399.288519630485,2541679.99418765,"2016-6-1"
"490 Illawarra Road (Cnr Hill Street), Marrickville NSW 2204",151.1459086,-33.9185418,69,937.616835734168,1901111.25247002,"2016-6-1"
"69 Princes Hwy (cnr Gladstone St), Kogarah NSW 2217",151.1371615,-33.9632309,49,105.767237377585,129553.448911458,"2016-6-1"
"449 Great Western Highway, Wentworthville NSW 2145",150.957169,-33.8126692,40,815.077596045149,1520345.34856206,"2016-6-1"
"363 Windsor Rd (Cnr Olive St), Baulkham Hills NSW 2153",150.9915984,-33.7601992,23,1536.67975023342,6057856.23722197,"2016-6-1"
"6 Hume Hwy, Warwick Farm NSW 2171",150.9307756,-33.9143477,53,1073.05684323691,3132081.09710008,"2016-6-1"
"Lot 2 Langford Drive Cnr Mitchell D, Kariong NSW 2250",151.2955769,-33.4390903,6,2740.35180311006,37368459.9422414,"2016-6-1"
"4 Lancaster St, Ingleburn NSW 2565",150.8668278,-33.9893203,23,126.090818148217,2909781.08943102,"2016-6-1"
"21 White St Cnr Marius St, Tamworth NSW 2340",150.9342624,-31.0924759,19,619.044387158841,12472417.3772081,"2016-6-1"
"490 Cowpasture Road, Hoxton Park NSW 2171",150.8548729,-33.9156272,24,1206.37919270781,3205205.13734961,"2016-6-1"
"5 Princes Highway, Moruya NSW 2537",150.081585,-35.9045227,4,834.495347111884,734138362.718033,"2016-6-1"
"1412-1414 Pittwater Road, North Narrabeen NSW 2101",151.2996886,-33.7009119,8,486.767976761596,7037737.41989255,"2016-6-1"
"40 Princes Highway, Unanderra NSW 2526",150.8469844,-34.4519307,20,278.053224404866,1925522.08504567,"2016-6-1"
"141 Church St, Gloucester NSW 2422",151.9579414,-32.0122337,4,231.925891790952,157929448.162963,"2016-6-1"
"Goobarabah Ave Cnr Gorokan Drive, Lake Haven NSW 2263",151.5081561,-33.2439954,10,1046.15664445557,5446008.00628781,"2016-6-1"
"370 Griffith Rd, Lavington NSW 2641",146.9374751,-36.0482339,15,441.072177436205,13229228.7640799,"2016-6-1"
"68 Duri Road, Tamworth NSW 2340",150.8996708,-31.1081816,18,1266.85006872457,58445103.9339244,"2016-6-1"
"662-664 Barrenjoey Rd, North Avalon NSW 2107",151.3344985,-33.625937,6,1226.01819343875,49491398.0995383,"2016-6-1"
"5 Boulder Bay Road, Fingal Bay NSW 2315",152.169295,-32.7491686,2,3796.56053336924,NA,"2016-6-1"
"580-586 Parramatta Road, Croydon NSW 2132",151.1264216,-33.8744317,57,224.204937036261,786204.890032053,"2016-6-1"
"Cnr Parramatta & Missenden Roads, Camperdown NSW 2050",150.9992393,-33.8175275,51,934.297844440724,1940229.61250633,"2016-6-1"
"1721 Pittwater Road, Mona Vale NSW 2103",151.3023908,-33.6803842,11,669.628636354794,32194587.4871101,"2016-6-1"
"2 Princes Highway, St Peters NSW 2044",151.1815092,-33.9075766,60,982.608062460726,1798656.71880209,"2016-6-1"
"116 Regent Street, Redfern NSW 2016",151.1995945,-33.8936314,58,475.088794055982,775678.354873687,"2016-6-1"
"646 Richmond Rd, Glendenning NSW 2761",150.8531879,-33.7375186,19,1550.73541279325,5708276.23312998,"2016-6-1"
"80 Heathcote Road, Moorebank NSW 2170",150.935817,-33.935939,33,435.832670228933,1848314.90439332,"2016-6-1"
"175 Ourimbah Road, Mosman NSW 2088",151.233291,-33.8209587,15,969.649107781745,4340554.8755542,"2016-6-1"
"169 Willoughby Road, Naremburn NSW 2065",151.2011506,-33.8199551,30,1068.01350992993,2902917.43020391,"2016-6-1"
"155-157 Rockwood Road, Yagoona NSW 2199",151.038516,-33.8931369,64,611.574911551059,2398662.65596424,"2016-6-1"
"21 Boundary Road, Mortdale NSW 2223",151.0735465,-33.9706194,43,955.91891617779,2222160.32698786,"2016-6-1"
"83 Princes Highway, Albion Park Rail NSW 2527",150.7904003,-34.554231,13,96.0846186456985,1307018.87757623,"2016-6-1"
"Northgate Ctr 224 Princess Hway, Fairy Meadow NSW 2519",150.891736,-34.4034237,26,1048.29793874156,2935011.68544245,"2016-6-1"
"339 Princes Highway, Sydenham NSW 2044",151.1728502,-33.9162497,64,440.842747014729,1410470.25818461,"2016-6-1"
"632 Warringah Road, Forestville NSW 2087",151.2143834,-33.7600027,19,222.755956267814,792605.141984448,"2016-6-1"
"851 Richmond Road, Marsden Park NSW 2765",150.8072623,-33.6723498,6,864.607565545312,16232897.9090109,"2016-6-1"
"1233 Victoria Road (Cnr Marsden Rd), West Ryde NSW 2114",151.0709707,-33.8067203,35,494.725684244056,3212052.88085676,"2016-6-1"
"1055 Great Western Highway, Minchinbury NSW 2770",150.8243989,-33.7819863,20,396.740180820555,5397648.18775541,"2016-6-1"
"28 Great Western Highway, Valley Heights NSW 2777",150.5818015,-33.7017728,5,2723.1605380634,19894291.5100735,"2016-6-1"
"Abbott Road, Seven Hills NSW 2147",150.950218,-33.7671636,39,431.752026316019,795425.865393579,"2016-6-1"
"154-156 Prospect Hwy, Seven Hills NSW 2147",150.941509,-33.7690909,39,98.8700337398784,652902.081910163,"2016-6-1"
"104 Lindsay Street, Campbelltown NSW 2560",150.8258332,-34.0655773,21,812.895221597328,2080456.45414591,"2016-6-1"
"120 Rocky Points Rd, Kogarah NSW 2217",151.1368205,-33.9769227,44,813.603490709992,1003592.65785965,"2016-6-1"
"256 Kissing Point Rd, Dundas NSW 2117",151.0532939,-33.7992244,35,585.1933360718,2551841.86200189,"2016-6-1"
"485 Sydney Road, Balgowlah NSW 2093",151.2559432,-33.7954014,19,1564.08147508218,NA,"2016-6-1"
"5 Bullecourt Avenue, Milperra NSW 2214",150.9889779,-33.9375157,37,507.299135633539,1375332.62057996,"2016-6-1"
"422 Pacific Hwy, Artarmon NSW 2064",151.1756867,-33.8111412,34,175.343441106522,439022.72454828,"2016-6-1"
"1234 Princess Highway, Engadine NSW 2233",151.0108517,-34.0772668,5,1218.49127095299,14418183.4762671,"2016-6-1"
"Cnr Hume Hwy & Pine Avenue, Casula NSW 2170",149.0481264,-34.8288721,2,12249.8474371002,619197388.83246,"2016-6-1"
"189 Belmore Road, Riverwood NSW 2210",151.0510526,-33.9556989,45,762.226621025661,2110805.59365326,"2016-6-1"
"76 Glossop Street, St Marys NSW 2760",150.7816733,-33.7602001,22,121.276700815689,2412730.921592,"2016-6-1"
"5243 Snowy Mountains Highway, Adaminaby NSW 2629",148.7701112,-35.9970641,2,680.413742255846,2048200177.46942,"2016-6-1"
"316 Penhurst St, Willoughby NSW 2068",151.1958944,-33.7938147,35,512.210149393522,1217567.95591462,"2016-6-1"
"Henry Lawson Drive, Bankstown NSW 2200",150.983598,-33.9384156,32,507.299135633539,7517504.17813784,"2016-6-1"
"438 Crown St, West Wollongong NSW 2500",150.872928,-34.4250438,24,54.920906695129,290890.665302336,"2016-6-1"
"368 Anzac Parade, Kingsford NSW 2032",151.226795,-33.9196208,50,593.093475898701,632664.183462526,"2016-6-1"
"24-42 King Georges Road, Wiley Park NSW 2195",151.0668013,-33.9194768,70,302.749080634448,350428.892995745,"2016-6-1"
"322 Canterbury Road, Canterbury NSW 2193",151.1130375,-33.9149737,81,224.996926306631,626099.359091341,"2016-6-1"
"582 Old Northern Road, Dural NSW 2158",151.0297917,-33.6951994,10,170.122543829594,2337596.57540751,"2016-6-1"
"47 Nolan Street (Corner Northcliffe Road), Berkeley NSW 2506",150.8394134,-34.4768598,16,725.902411745221,6213815.28004593,"2016-6-1"
"Cnr Barrenjoey & Darley Roads, Mona Vale NSW 2103",151.3230945,-33.6428508,8,978.277829134453,27862738.9539609,"2016-6-1"
"19-21 Windsor Road, Kellyville NSW 2155",150.9589397,-33.7128002,10,193.176040634782,8238246.42288828,"2016-6-1"
"Lanyon Dr Cnr Mccrae St, Queanbeyan NSW 2620",149.2115674,-35.3594983,10,849.820937897964,4124647.07727402,"2016-6-1"
"Lot 1 Cowpasture Rd, Hoxton Park NSW 2171",150.8481754,-33.9253933,20,72.5272957183426,1186645.74994659,"2016-6-1"
"Cnr Milperra & River Rds, Revesby NSW 2212",151.0002109,-33.9322069,40,872.469684727018,2447118.7363064,"2016-6-1"
"1234 Pittwater Road, Narrabeen NSW 2101",151.2982952,-33.7196065,12,683.699652833582,8622055.77178049,"2016-6-1"
"1497 Pittwater Road & Gondola Street, Narrabeen NSW 2101",151.2964925,-33.7079296,10,366.008133230147,3398133.03717303,"2016-6-1"
"41 - 43 Princes Highway, Unanderra NSW 2526",150.8492785,-34.4502963,21,278.053224404866,2498671.3476467,"2016-6-1"
"16 King St, Warners Bay NSW 2282",151.6453117,-32.9755979,25,261.609393240323,NA,"2016-6-1"
"254-256 Shellharbour Rd, Barrack Heights NSW 2528",150.8594128,-34.5594249,11,268.946516595427,1516540.73815885,"2016-6-1"
"185 Bondi Rd, Bondi NSW 2026",151.2647527,-33.8944023,31,434.752412495812,4747232.02313268,"2016-6-1"
"518 Rocky Point Road, Sans Souci NSW 2219",151.1324083,-33.992469,37,1148.52470409818,5088049.84785686,"2016-6-1"
"39 Pangee St, NYNGAN NSW 2825",147.1914997,-31.56101,3,139.467467169045,10288787056.7548,"2016-6-1"
"149 Great Western Hwy, Mays Hill NSW 2145",150.9893848,-33.819343,47,747.101298368788,1466974.4641912,"2016-6-1"
"26 Durham Rd, East Gresford NSW 2311",151.5508087,-32.4276457,1,12798.1015386976,1714492211.71155,"2016-6-1"
"505 Crown St, West Wollongong NSW 2500",150.8725123,-34.4255018,24,63.5719914195072,1887957.44829442,"2016-6-1"
"80-82 Central Ave, OAK FLATS NSW 2529",150.819417,-34.562679,19,935.515337975721,5968010.41699643,"2016-6-1"
"73 Main St, Alstonville NSW 2477",153.4388702,-28.8411584,4,338.621518664776,54034079.2931514,"2016-6-1"
"124 Nymagee Street, Nyngan NSW 2825",147.2001333,-31.5631445,3,714.637339421107,4155866080.84982,"2016-6-1"
"20-22 Babbage Rd, Roseville NSW 2069",151.1945551,-33.7780213,26,959.477718465818,4339662.79225314,"2016-6-1"
"110 Galston Rd., Hornsby Heights NSW 2077",151.0984029,-33.6764939,6,1600.99702968566,26809618.0256259,"2016-6-1"
"16-18 Lake St Cnr Macintosh St, Forster NSW 2428",152.5162479,-32.1830691,6,859.589530930878,NA,"2016-6-1"
"2 Johnson Road, Tuggerah NSW 2259",151.4210777,-33.2943159,15,124.068369257268,1917930.53926766,"2016-6-1"
"277 Newtown Road, Bega NSW 2550",149.8395471,-36.6904532,4,1679.19529840751,118458044.739445,"2016-6-1"
"51 Roberts Road (Cnr Amarina St), Greenacre NSW 2190",151.0659653,-33.9001464,65,506.02444143067,645437.475397244,"2016-6-1"
"136 Appin Road, Appin NSW 2560",150.7898766,-34.1951344,2,674.704509054173,80638284.5386681,"2016-6-1"
"Cnr Thirlmere Way & Remembrance Drive, Tahmoor NSW 2573",150.5740784,-34.2002792,6,1222.56709050355,12176382.8014603,"2016-6-1"
"348 Barrenjoey Road, Newport NSW 2106",151.3201794,-33.6555761,8,207.838313527059,7486082.14948702,"2016-6-1"
"41 Collins St, KIAMA NSW 2533",150.8532894,-34.6680421,2,1668.39665635093,52696137.5436843,"2016-6-1"
"158 Clyde Street (Cnr Redfern St), Granville NSW 2142",151.0125643,-33.8462108,54,140.860111899105,612716.012149937,"2016-6-1"
"742 Forest Road, Peakhurst NSW 2210",151.067992,-33.9575169,53,118.582734959548,477167.0801498,"2016-6-1"
"88 Bega Street, Tathra NSW 2145",149.9806941,-36.7331934,1,13473.4076052076,203883769.822448,"2016-6-1"
"11 Macquarie Street, Windsor NSW 2756",150.8233241,-33.6056601,10,1235.12185190534,7712007.828053,"2016-6-1"
"504 Pittwater road, North Manly NSW 2100",151.2708256,-33.7751939,20,855.706066316392,2010417.05392051,"2016-6-1"
"Kurrajong Road (Carnes Hill Marketplace), Hoxton Park NSW 2171",150.8448556,-33.9359785,22,1213.58164483467,5043906.96438229,"2016-6-1"
"171 Clyde Street, South Granville NSW 2142",151.0129213,-33.8474453,54,140.860111899105,1202349.83429991,"2016-6-1"
"656 Warringah Rd, FORESTVILLE NSW 2087",151.2120231,-33.7596197,21,61.9674988669289,487639.33061409,"2016-6-1"
"1 Avenue of the Americas, Newington NSW 2127",151.0564605,-33.834006,43,833.321842979243,4204685.27441567,"2016-6-1"
"137 Windsor Road, Northmead NSW 2152",150.9970736,-33.7822271,35,603.806657747881,1854175.43717794,"2016-6-1"
"281 New Canterbury Rd, Lewisham NSW 2049",151.1456662,-33.8985445,64,344.148664792919,1187890.59650666,"2016-6-1"
"Mid Western Hwy Cnr Emu St, West Wyalong NSW 2671",147.0832962,-33.8923184,1,11349.9601713822,1974671464.75694,"2016-6-1"
"86 Kenthurst Road, Kenthurst NSW 2156",151.010796,-33.6821972,7,1524.02470237725,9420950.29033011,"2016-6-1"
"126 Windsor Road, Mcgraths Hill NSW 2756",150.8335206,-33.6152339,10,179.210994140064,2993361.24954116,"2016-6-1"
"42 Ambrose Street, Carey Bay NSW 2283",151.6051001,-33.0229767,8,1605.49124700326,NA,"2016-6-1"
"7 Sturt Highway, Darlington Point NSW 2706",145.9925827,-34.5943702,2,2904.80401211967,800029378.61588,"2016-6-1"
"210 Guildford road, Guildford NSW 2161",150.9908562,-33.8551556,67,215.313210558145,748093.107442468,"2016-6-1"
"49 Canterbury Rd, Bankstown NSW 2200",151.0396169,-33.9327814,60,165.474446304499,1052494.17462248,"2016-6-1"
"88 Clovelly Road, Randwick NSW 2031",151.2485378,-33.9087151,43,1274.92524887964,NA,"2016-6-1"
"54 Alice Street, Moree NSW 2400",149.8433324,-29.4716539,6,572.240134978785,6127534.90663505,"2016-6-1"
"1135 Pacific Hwy, Lake Munmorah NSW 2259",151.5521905,-33.1864749,5,369.365569631388,NA,"2016-6-1"
"87-89 Parramatta Rd, CONCORD NSW 2137",151.099381,-33.8678601,49,207.74856487858,597777.242107749,"2016-6-1"
"403 Argyle St, Picton NSW 2571",150.6051262,-34.1880593,4,2242.89314211624,27025509.3023596,"2016-6-1"
"116-118 Railside Ave, Bargo NSW 2574",150.5799718,-34.2929107,4,4235.46849927253,118758356.604847,"2016-6-1"
"394 Fifteenth Ave, Austral NSW 2179",150.8144195,-33.9194171,11,1605.99098543164,15538912.5801306,"2016-6-1"
"137 Kenthurst Rd, Kenthurst NSW 2156",151.0059333,-33.6604518,8,2453.71940337554,76032749.8619437,"2016-6-1"
"lot 8 Woodenbong Road, Bonalbo NSW 2469",152.6289163,-28.7380121,1,17596.6289244514,899723763.578507,"2016-6-1"
"6 Stephens Road, Queanbeyan NSW 2620",149.208709,-35.3465734,10,1457.32628734811,18918381.1892759,"2016-6-1"
"65 Tharwa Road, Queanbeyan NSW 2620",149.2208023,-35.358299,9,849.820937897964,2036700.516743,"2016-6-1"
"2 Blaxcell St, Granville NSW 2142",151.0110136,-33.8362561,54,637.612881894208,1126016.21046665,"2016-6-1"
"2 Minorca Pl Cnr Toormina Rd, Toormina NSW 2452",153.0906504,-30.3524177,6,920.718978117846,12706469.6464179,"2016-6-1"
"The Entrance Rd Cnr Bellevue Rd, Forresters Beach NSW 2260",151.4618696,-33.4091248,6,2751.01659866451,17525090.4289174,"2016-6-1"
"126 Pacific Hwy, SWANSEA NSW 2281",151.6382615,-33.088127,3,3507.9317823586,33339117.9492599,"2016-6-1"
"1563 Wisemanferry Rd, Maroota NSW 2756",150.9748203,-33.472207,2,2444.09371436803,115770244.726231,"2016-6-1"
"30 Bonds Road (Corner Romilly Street), Riverwood NSW 2210",151.0583644,-33.9525217,50,762.226621025661,1665766.31733215,"2016-6-1"
"142 Windsor Road (Corner Mulgrave Road), McGraths Hill NSW 2756",150.834226,-33.616738,10,179.210994140064,9416214.69252104,"2016-6-1"
"4-6 Kosciusko Rd, Jindabyne NSW 2627",148.6196447,-36.4132261,4,595.478660446431,112653431.958406,"2016-6-1"
"403 Canterbury Road, Campsie NSW 2194",151.1087526,-33.9161479,80,417.106738061458,1231874.27233768,"2016-6-1"
"280 Canterbury Road, Canterbury NSW 2193",151.1151866,-33.9140228,84,224.996926306631,1305502.08467366,"2016-6-1"
"709 Cabramatta Road, Bonnyrigg NSW 2177",150.8923798,-33.8930954,41,785.907822182775,1505095.29172969,"2016-6-1"
"275 Bay Street, Brighton-Le-Sands NSW 2216",151.1531144,-33.9599129,45,467.018708688329,1224020.13868502,"2016-6-1"
"208-212 Cabramatta Rd, Cabramatta West NSW 2166",150.9367228,-33.8957248,58,780.869362329204,2463178.62032819,"2016-6-1"
"Lot 12 South Western Freeway (Hume Hwy), Pheasants Nest NSW 2574",150.6394303,-34.2828848,1,5586.28551233828,160308321.347102,"2016-6-1"
"465 Pacific Hwy, Wyoming NSW 2250",151.3500005,-33.4093924,14,39.3702638424217,6000011.70220041,"2016-6-1"
"New England Highway, Moonbi NSW 2353",151.096935,-30.9869823,1,8739.28228304296,456504662.471571,"2016-6-1"
"7452 Newell Hwy, Beckom NSW 2665",146.9584169,-34.3315988,1,6283.4401902053,801568216.568248,"2016-6-1"
"2808 Princes Hwy (cnr Ford St), Moruya NSW 2537",150.08392,-35.9201575,4,831.060858137664,142825467.133018,"2016-6-1"
"127 Victoria Road, Rozelle NSW 2039",151.1676471,-33.8621049,46,90.4825288625927,516191.7361058,"2016-6-1"
"262-272 Victoria Road, Rydalmere NSW 2116",151.0323885,-33.8100763,44,485.068449457676,2146162.30094981,"2016-6-1"
"52 Mitchell Street, Eden NSW 2551",149.8989719,-37.0652594,4,393.07350644228,1129943053.22394,"2016-6-1"
"180 Manning St, KIAMA NSW 2533",150.8482963,-34.6825048,2,1668.39665635093,44645084.9666023,"2016-6-1"
"287 Main Street, Toukley NSW 2263",151.5460157,-33.2650035,4,3520.33598636872,28427210.4278071,"2016-6-1"
"362 Putty Road, Wilberforce NSW 2756",150.8301421,-33.5287176,4,3801.86214452575,135954007.806413,"2016-6-1"
"3030 Remembrance Drive, Bargo NSW 2574",150.5739765,-34.2550541,6,1219.36935038334,57907523.7735047,"2016-6-1"
"82-86 Hamilton Road, Fairfield NSW 2165",150.9499226,-33.8729033,57,372.970075607855,765910.73982507,"2016-6-1"
"1579 Botany Road, Botany NSW 1579",151.2011659,-33.9525277,32,1966.94281124457,5608521.51366493,"2016-6-1"
"77 Bombala Street, Delegate NSW 2633",148.9377404,-37.0445009,1,30447.4653142156,NA,"2016-6-1"
"275 Pacific Highway, Hornsby NSW 2077",151.0995543,-33.690896,14,1271.3219957087,6230043.99963272,"2016-6-1"
"133-139 Pettwater Rd, Manly NSW 2095",151.2848154,-33.7903441,19,315.729569457838,NA,"2016-6-1"
"85-87 John Street, Coonabarabran NSW 2357",149.2771566,-31.2723111,3,174.673085442813,565707078.909209,"2016-6-1"
"149 - 151 Parkes Street, Helensburgh NSW 2508",150.9777831,-34.1923397,1,11537.0952065351,138828853.984919,"2016-6-1"
"846 The Horsley Dr, Smithfield NSW 2164",150.9256232,-33.8514982,39,606.8714532229,4298770.4654274,"2016-6-1"
"68 Goldsmith Street, Goulburn NSW 2580",149.719228,-34.7505216,17,216.688329880733,24103309.570982,"2016-6-1"
"533,Mowbray Rd, Lane Cove NSW 2066",151.1663034,-33.8059938,38,590.322541626515,1213218.60054785,"2016-6-1"
"2-4 Church Street, Port Kembla NSW 2505",150.9032748,-34.4856092,10,133.5629989763,927202.012574911,"2016-6-1"
"181 The Boulevarde, Miranda NSW 2228",151.1096635,-34.0301774,25,389.819781858371,1898115.06195524,"2016-6-1"
"65 Bexley Rd, Campsie NSW 2194",151.1067478,-33.9223709,76,714.722952492643,1531429.00819927,"2016-6-1"
"51 Spofforth St, Cremorne NSW 2090",151.2283196,-33.8343994,15,483.91027753977,6029919.29976392,"2016-6-1"
"505 Campbelltown Road, Denham Court NSW 2565",150.8466162,-33.9826608,24,2008.3333827792,7504990.02894175,"2016-6-1"
"1/169 Annangrove Rd, Annangrove NSW 2156",150.9562552,-33.6710816,7,3922.65768740408,31240323.2972062,"2016-6-1"
"103 Smith ST, Kempsey NSW 2440",152.8444126,-31.0753687,9,126.235985287235,13572865.6948789,"2016-6-1"
"130 Hamilton Road, Fairfield NSW 2165",150.9459033,-33.8726458,53,63.7718140381872,220863.250770211,"2016-6-1"
"1 The Strand, Dee Why NSW 2099",151.2961741,-33.7554944,21,897.064689605335,1853619.18216638,"2016-6-1"
"95 Ballantrae Drive, St Andrews NSW 2566",150.833198,-34.0207225,23,382.805195153242,4177701.81643327,"2016-6-1"
"41 Minmi Rd, WALLSEND NSW 2287",151.661895,-32.8896321,14,419.303044756266,22443979.1067915,"2016-6-1"
"39 Oaks Rd, Thirlmere NSW 2752",150.5608786,-34.2013683,5,1222.56709050355,243369389.236731,"2016-6-1"
"189 South Creek Rd, Cromer NSW 2099",151.2803635,-33.7361527,20,1514.05662428716,10426844.2255482,"2016-6-1"
"607 Canterbury Road, Belmore NSW 2192",151.0959163,-33.9214794,76,925.001693984797,1526418.00686467,"2016-6-1"
"263 Great Western Highway, Blackheath NSW 2785",150.285083,-33.6337476,3,420.635771450772,146255379.967596,"2016-6-1"
"638 New South Head Rd, Rose Bay NSW 2029",151.2677728,-33.8706069,15,107.239451300691,5139486.55298591,"2016-6-1"
"13 Canterbury Road, Canterbury NSW 2193",151.1252332,-33.9078127,74,540.617866733383,1404446.62716782,"2016-6-1"
"795 Luxford Road (Corner Buckwell Drive), Hassall Grove NSW 2761",150.8366605,-33.7353279,14,979.435119378,3798344.25291324,"2016-6-1"
"Lot 6 Luxford Road, Mount Druitt NSW 2770",150.8266994,-33.7646334,22,231.487515627106,2408653.48909235,"2016-6-1"
"461 Hume Hwy, Casula NSW 2170",150.9118174,-33.9408828,33,1178.18088415213,3181864.46730168,"2016-6-1"
"95 Five Islands Road, Cringila NSW 2502",150.8717379,-34.4659188,27,1596.80664374469,5671862.08755767,"2016-6-1"
"45 Yanko Road, West Pymble NSW 2073",151.1285255,-33.7620792,23,1812.83286950023,5779205.24206138,"2016-6-1"
"2 Opal St, Tingha NSW 2369",151.2125894,-29.9552885,1,21459.1702433323,1338015425.12285,"2016-6-1"
"42 Naval Pde, EROWAL BAY NSW 2540",150.6507892,-35.0996033,3,1629.39162951035,NA,"2016-6-1"
"152 Toongabbie Rd, Girraween NSW 2145",150.9390146,-33.7955317,38,837.678296488716,1481038.68303448,"2016-6-1"
"190 Canley Vale Rd, Canley Heights NSW 2166",150.928557,-33.884527,54,416.712391161159,1202130.05808713,"2016-6-1"
"1432 Windsor Rd (cnr Woodlands St), Vineyard NSW 2765",150.8743855,-33.6573099,7,1353.03930859596,12362411.1928796,"2016-6-1"
"52 Great Western Hwy (cnr Albion St), Katoomba NSW 2780",150.3067256,-33.7070842,4,940.281611060397,600759887.595498,"2016-6-1"
"196 The River Road, Revesby NSW 2212",151.0165261,-33.9556495,31,73.9707803806746,7679356.83199263,"2016-6-1"
"47 Lakemba Street, Belmore NSW 2192",151.0856445,-33.9139649,69,968.861140565173,1631711.02267742,"2016-6-1"
"1141 Castlereagh Rd, Castlereagh NSW 2749",150.6771887,-33.6693538,1,5095.27784659746,50703599.2785673,"2016-6-1"
"24 Chatham Rd, Pitt Town NSW 2756",150.8603637,-33.5868016,7,223.361253727441,13611114.4758354,"2016-6-1"
"119 Harbord Rd, Freshwater NSW 2096",151.2794674,-33.7724673,20,855.706066316392,947806.351367235,"2016-6-1"
"729 The Horsley Drive, Smithfield NSW 2164",150.9357342,-33.8522655,46,333.265691866801,577306.969628252,"2016-6-1"
"102 Maloney St, Eastlakes NSW 2018",151.2058089,-33.9309588,54,885.092285322892,2499045.61531949,"2016-6-1"
"369C Bexley Road, Bexley NSW 2207",151.1230203,-33.9458271,67,489.160218520346,704299.80691725,"2016-6-1"
"599 Old South Head Rd, Rose Bay NSW 2029",151.2771385,-33.8692319,12,760.346794166016,32066946.6361067,"2016-6-1"
"405 Hume Highway, Yagoona NSW 2199",151.0291505,-33.9089155,61,1077.40689669174,2083212.88976985,"2016-6-1"
"1/3 Haldon St, Lakemba NSW 2195",151.0763299,-33.9179636,71,799.385816760524,869781.092719451,"2016-6-1"
"136 Woodlark St, Lismore NSW 2480",153.2807559,-28.8080812,20,97.4046682999488,178349.33637026,"2016-6-1"
"6,Doyle Rd, Revesby NSW 2210",151.0186906,-33.9458271,35,838.500370258246,1566371.7754636,"2016-6-1"
"33-35 Wardell Road, Earlwood NSW 2206",151.1335715,-33.9160066,71,567.663538724048,931830.803490385,"2016-6-1"
"114,Boundary Rd, Peakhurst NSW 2210",151.0680491,-33.9633195,47,552.138768187837,1024264.17592889,"2016-6-1"
"160 South Terrace, Bankstown NSW 2200",151.0441662,-33.9186355,67,1515.08638084386,2517665.3537225,"2016-6-1"
"331 Waterloo Road, Greenacre NSW 2190",151.0592662,-33.8959797,62,492.834799858371,767767.017128617,"2016-6-1"
"364-366 Eastern Valley Way, Chatswood East NSW 2067",151.2010511,-33.7865969,31,191.809847560503,3355913.19626349,"2016-6-1"
"836 Forest Road, Peakhurst NSW 2100",151.0607363,-33.9599634,48,723.463788858265,1368489.05912936,"2016-6-1"
"390 Princes Highway, Blakehurst NSW 2221",151.1136347,-33.9902844,44,415.922281702258,3628830.6403476,"2016-6-1"
"36 Henderson Road, Alexandria NSW 2015",151.1972615,-33.8974472,60,475.088794055982,920991.596081078,"2016-6-1"
"97 Hume Highway, Chullora NSW 2190",151.0576809,-33.8917378,67,492.834799858371,2572022.39921644,"2016-6-1"
"314 Princes Highway (Cnr Banksia Street), Banksia NSW 2216",151.1416946,-33.9456696,57,786.466041104303,1550635.75562304,"2016-6-1"
"2 Cary Grove (Cnr Ben Lomond Drive), Minto NSW 2566",150.8367608,-34.0261722,24,298.827836509604,747349.659987628,"2016-6-1"
"136 Hume Highway (cnr Hollywood Drive), Lansvale NSW 2166",150.9582271,-33.8946841,56,122.57696293365,690278.178590298,"2016-6-1"
"475 Cleveland St, Redfern NSW 2016",151.2161559,-33.8921803,52,266.65165951601,1183596.85880011,"2016-6-1"
"Brooks St (Glenquarie Shopping Centre), Macquarie Fields NSW 2564",150.8895204,-33.9892071,18,542.806581594686,4787765.29469184,"2016-6-1"
"48-50 Blaxland Road, Campbelltown NSW 2560",150.8119636,-34.0611191,23,183.553809011963,819387.627984405,"2016-6-1"
"774 Parramatta Road, Lewisham NSW 2049",151.1479693,-33.8903112,70,507.129996764965,479394.432608481,"2016-6-1"
"449 Captain Cook Drive, Woolooware NSW 2230",151.1438187,-34.0386942,11,1270.60521886493,19445079.5705622,"2016-6-1"
"287 Liverpool Road, Burwood NSW 2134",151.0996931,-33.8872373,67,176.781250259607,1163781.71082297,"2016-6-1"
"218 King Georges Road, Roselands NSW 2196",151.073474,-33.9330388,66,65.2937330892293,418439.6120525,"2016-6-1"
"Macarthur Gardens Village U 57 100 Gilchrist Drive, CAMPBELLTOWN NSW 2560",150.794467,-34.077421,17,1040.540269044,10536892.1055298,"2016-6-1"
"12-14 Norfolk Street, Ingleburn NSW 2565",150.8647644,-33.9999663,23,683.472809344146,2796232.98586822,"2016-6-1"
"3 Thomas Rose Drive, Rosemeadow NSW 2560",150.7987053,-34.1000412,13,1230.03902997995,6275324.14243364,"2016-6-1"
"770 Richmond Road, Berkshire Park NSW 2765",150.8011898,-33.6664351,6,247.041789041443,4726125.42993534,"2016-6-1"
"66 Captain Cook Drive, Caringbah NSW 2229",151.123995,-34.0327784,21,801.325897740219,1742280.45049414,"2016-6-1"
"Eaglevale Road (Eaglevale Market Place), Eagle Vale NSW 2558",150.8083924,-34.0349909,22,1926.05512527474,13204655.0069212,"2016-6-1"
"3964 Wallanbah Rd Cnr Pacific Hwy, Nabiac NSW 2312",152.3754346,-32.098592,2,1028.55251446611,92510774.1881455,"2016-6-1"
"24 Railwayst, Lidcombe NSW 2141",151.0456992,-33.8646968,55,228.837441973014,2432350.25130033,"2016-6-1"
"662 Windsor Rd (cnr Meriville Rd), Kellyville NSW 2155",150.9279371,-33.699549,12,2141.36434231088,7667760.37913585,"2016-6-1"
"262 Maitland Rd (Pacific Highway), Islington NSW 2296",151.7455596,-32.9102266,29,124.326181489475,789131.799339592,"2016-6-1"
"1642 The Horsley Dr, Horsley Park NSW 2164",150.8638141,-33.843808,13,964.206877782375,8120396.62950397,"2016-6-1"
"152 Moorefields Road, Kingsgrove NSW 2208",151.0863744,-33.9355015,68,1095.0184639554,1752001.20319694,"2016-6-1"
"338 Princes Highway, Blakehurst NSW 2221",151.1126438,-33.9866267,47,415.922281702258,574995.624621153,"2016-6-1"
"663 Warringah Road, Forestville NSW 2087",151.2114366,-33.7598883,21,61.9674988669289,441169.436630145,"2016-6-1"
"273 Old Hume Highway, Camden NSW 2570",150.6946186,-34.0864134,4,3152.18184457005,69887147.0578584,"2016-6-1"
"592-596 Old Northern Rd, Dural NSW 2158",151.0312614,-33.6942811,10,170.122543829594,5422019.15354806,"2016-6-1"
"27 Queen Street, Campbelltown NSW 2560",150.8193605,-34.0604342,22,398.087798356751,1199025.1764493,"2016-6-1"
"4 Century Circuit, Baulkham Hills NSW 2153",150.9626446,-33.7334649,23,2317.6535963885,7640362.61085308,"2016-6-1"
"1443 Camden Valley Way, Leppington NSW 2171",150.8155811,-33.9664303,8,425.062247270252,2293882.91846502,"2016-6-1"
"197 Windsor Road, Northmead NSW 2152",151.0000877,-33.7774002,34,603.806657747881,3248139.3980884,"2016-6-1"
"126 Great Western Highway, Blaxland NSW 2774",150.6109504,-33.7451049,8,151.62187651131,2567459.76605403,"2016-6-1"
"200-204 Ben Boyd Rd (Cnr Ernest St), Neutral Bay NSW 2089",151.2194339,-33.8291538,21,290.238371800004,1222937.76404542,"2016-6-1"
"Lot 2 Lake Entrance Road, Oak Flats NSW 2529",150.8225386,-34.5707071,19,935.515337975721,17442115.9904606,"2016-6-1"
"1418 Pittwater Rd, Narrabeen NSW 2101",151.2972371,-33.7135062,12,622.379817418548,2368568.10627985,"2016-6-1"
"45 Lane Cove Rd & Myra Ave, Ryde NSW 2112",151.1100007,-33.8072734,29,132.000259410014,1189098.92618102,"2016-6-1"
"65-99 Hume Highway, Canley Vale NSW 2166",150.9606301,-33.8929469,56,294.171166070734,635608.896362476,"2016-6-1"
"378 Pacific Hwy (Cnr Allison Ave), Lane Cove NSW 2066",151.1768514,-33.814049,34,340.080059986705,1388918.11712837,"2016-6-1"
"306-312 Forest Road (Cnr Fredrick St), Bexley NSW 2205",151.1282405,-33.9465485,63,230.115203943392,348506.073120177,"2016-6-1"
"250 Burns Bay Road, Lane Cove NSW 2066",151.1517333,-33.8171127,38,369.207675120136,1720824.46530652,"2016-6-1"
"436-438 The Horsley Dve (Cnr Polding St), Fairfield NSW 2165",150.9536995,-33.8637965,55,627.227025608718,1564608.34484392,"2016-6-1"
"920 Richmond Rd, Marsden Park NSW 2765",150.8429966,-33.715728,13,2251.88671185086,14029161.1953053,"2016-6-1"
"188-190 Pennant Hills Rd, Thornleigh NSW 2120",151.0850239,-33.7250345,19,343.345560340477,1353168.17890191,"2016-6-1"
"26-28 Georges River Rd (Cnr Carvers Rd), Oyster Bay NSW 2225",151.0871717,-34.0015426,38,2256.69587912878,6098844.22156334,"2016-6-1"
"198 Harbord Rd (Cnr Winbourne Rd), Brookvale NSW 2100",151.2794631,-33.7633387,20,350.506122276457,923209.66300267,"2016-6-1"
"297-299 Bunnerong Road, Pagewood NSW 2035",151.228436,-33.9407211,34,1069.01149763805,3139929.43765616,"2016-6-1"
"1 Macquarie Place Haywards Bay, Yallah NSW 2530",150.7856005,-34.5412481,13,1193.86836546051,23305056.346684,"2016-6-1"
"484 Sunnyholt Road, Parklea NSW 2768",150.9218113,-33.7292969,25,1689.50424607465,5397099.49809751,"2016-6-1"
"179-181 Mona Vale Rd, St Ives NSW 2075",151.1575445,-33.731211,16,64.148438097596,2847275.05670002,"2016-6-1"
"2 Avalon Pde (Cnr Barrenjoey Rd), Avalon Beach NSW 2107",151.3303132,-33.6364215,7,978.277829134453,5517760.14192867,"2016-6-1"
"274-276 Grand Parade (Cnr Ramsgate Rd), Ramsgate NSW 2217",151.1472801,-33.9853676,35,654.764997609345,10892525.8440992,"2016-6-1"
"955 Pacific Highway (Cnr Yallambee Rd), Berowra NSW 2081",151.1476108,-33.6281779,5,162.926365962714,19974911.3549893,"2016-6-1"
"279-287 Princes Highway, Bulli NSW 2516",150.9120882,-34.3365111,12,145.754643595777,3001339.79126692,"2016-6-1"
"26-30 King Street, Warrawong NSW 2502",150.8869322,-34.482786,17,109.856732999259,1987552.29037166,"2016-6-1"
"19 Davies Road, Padstow NSW 2211",151.0376922,-33.9484809,44,147.956473383785,492629.997374833,"2016-6-1"
"959-961 Anzac Pde, Maroubra NSW 2035",151.2407728,-33.9499291,30,778.435560021182,NA,"2016-6-1"
"295 Woodville Rd, Guildford NSW 2161",150.9969202,-33.8507323,60,285.199713297961,683559.256096646,"2016-6-1"
"218 John St (Cnr Cumberland Hwy), Cabramatta NSW 2166",150.92207,-33.8934002,55,576.799779600277,768024.89246995,"2016-6-1"
"88-90 Great Western Highway, Colyton NSW 2760",150.7953305,-33.7754732,21,2103.52385576286,8954971.02570641,"2016-6-1"
"18 Parramatta Road, Lidcombe NSW 2141",151.0592478,-33.853927,43,947.695338731068,2492975.92286164,"2016-6-1"
"124-126 Johnston Street, Annandale NSW 2038",151.1706799,-33.8808348,58,1026.24254757773,2443756.43244147,"2016-6-1"
"213-253 Parramatta Rd & Walker St, Five Dock NSW 2046",151.1147333,-33.8699789,57,910.576308967454,2340781.61274552,"2016-6-1"
"9 Albert Rd, Strathfield NSW 2135",151.0924193,-33.8706519,49,714.708482853161,1760298.92855737,"2016-6-1"
"396-404 Forest Road, Hurstville NSW 2220",151.0990431,-33.9648828,59,843.032705895756,2284938.4106658,"2016-6-1"
"884-888 Hume Hwy (Cnr Strickland St), Bass Hill NSW 2197",150.9974773,-33.8995507,52,223.344126557506,383516.507565022,"2016-6-1"
"1032-1036 Victoria Rd, West Ryde NSW 2114",151.0852027,-33.8074717,38,166.707895275641,2099556.23452342,"2016-6-1"
"112 Rookwood (Cnr Brunker) Rds, Yagoona NSW 2199",151.0370842,-33.8985197,60,84.8728737209527,472197.690167282,"2016-6-1"
"311 Great Western Highway, Lawson NSW 2783",150.4260376,-33.7219274,2,2407.81725858664,186350611.694918,"2016-6-1"
"194-206 Pacific Hwy, Hornsby NSW 2077",151.0991475,-33.7071996,19,485.286413773977,1647199.00342607,"2016-6-1"
"1355 Princess Hwy (Cnr Oliver Rd), Heathcote NSW 2233",151.0070655,-34.0877903,5,74.9415702011553,983476.137744904,"2016-6-1"
"867-869 South Dowling Street, Waterloo NSW 2017",151.2143868,-33.9018561,57,569.608070715518,1107286.44306554,"2016-6-1"
"199-203 Kissing Point Rd (Cnr Kirby St), Dundas NSW 2117",151.0470064,-33.7986945,42,585.1933360718,1241115.94742441,"2016-6-1"
"338-340 Hume Highway, Liverpool NSW 2170",150.9176754,-33.9314498,39,386.353646530876,1134066.01408839,"2016-6-1"
"247 Banks Drive (Cnr Mamre Rd), St Clair NSW 2759",150.7715784,-33.7882833,13,772.903887695924,28492339.9411702,"2016-6-1"
"387-427 Wattle (Cnr Kelly St), Ultimo NSW 2007",151.1967537,-33.8814237,50,822.05764760624,3710325.51235485,"2016-6-1"
"562-572 Botany Rd, Alexandria NSW 2015",151.200079,-33.9157746,55,773.313483438081,1623503.51778865,"2016-6-1"
"877-879 Pacific Hwy, Chatswood NSW 2067",151.1804716,-33.7917168,36,1330.63068201433,2348491.76872885,"2016-6-1"
"74 Roberts Road, Greenacre NSW 2190",151.0664131,-33.8923237,62,225.965581320613,500928.356882453,"2016-6-1"
"470 Princes Hwy (Cnr The Boulevarde), Gymea NSW 2232",151.0831807,-34.0278268,20,263.20918049332,704593.68998003,"2016-6-1"
"100 Briens Road, Northmead NSW 2152",150.9895831,-33.795989,46,1042.37478975642,3156992.08212197,"2016-6-1"
"4 Ryde Rd, Hunters Hill NSW 2110",151.1416883,-33.831792,40,1081.25491344343,2526312.33189404,"2016-6-1"
"Merrylands Road & Braeside St, Greystanes NSW 2145",150.9663485,-33.8315303,58,335.951755727499,1578827.80600262,"2016-6-1"
"99 Parraweena Rd (Cnr Taren Point Rd), Miranda NSW 2228",151.1200922,-34.0262979,24,649.303308864805,893855.09399353,"2016-6-1"
"275 Lane Cove Rd, North Ryde NSW 2113",151.1171154,-33.7955339,34,439.474138697892,538745.761561781,"2016-6-1"
"39- 51 Victoria Rd, Drummoyne NSW 2047",151.1589382,-33.8560441,43,46.556202823691,1147830.78227443,"2016-6-1"
"293 Camden Valley Hwy (Cnr Grahams Hill Rd), Narellan NSW 2567",150.7326882,-34.0411702,12,176.833679068105,2569469.35962081,"2016-6-1"
"611 Great Western Hwy (Cnr Brabham Drv), Eastern Creek NSW 2766",150.8707665,-33.7930643,22,1409.30294516022,4674284.21044335,"2016-6-1"
"37 Elizabeth St (Cnr Victoria St), Wetherill Park NSW 2164",150.8995603,-33.8458699,24,440.874874072619,4264437.75707047,"2016-6-1"
"120-138 Birrell Street, Bondi Junction NSW 2022",151.248617,-33.8955829,41,637.789987033857,680351.728429228,"2016-6-1"
"244 Hawkesbury Valley Way, Clarendon NSW 2756",150.7890621,-33.6085177,10,2179.26611741159,12508838.7222075,"2016-6-1"
"102-108 Taren Point Road, Taren Point NSW 2229",151.1219985,-34.0202308,31,46.6748476047781,4738477.88518357,"2016-6-1"
"Cowpasture Rd & Green Valley, Green Valley NSW 2168",150.8588,-33.8919066,23,275.052105583915,8556476.15526378,"2016-6-1"
"650-652 Hoxton Park Rd, Hoxton Park NSW 2171",150.8489548,-33.9253198,20,72.5272957183426,540425.62458849,"2016-6-1"
"308-310 Parramatta Road, Stanmore NSW 2048",151.1643351,-33.8884242,64,547.113323743438,1053007.83055219,"2016-6-1"
"252 Princes Highway, Albion Park NSW 2527",150.8022336,-34.5676634,13,102.887980164441,7353624.40540063,"2016-6-1"
"1389 Camden Valley Way, Leppington NSW 2179",150.8128577,-33.9707082,8,537.1327651473,15219768.4184234,"2016-6-1"
"132-136 Sunnyholt Road, Blacktown NSW 2148",150.9146184,-33.7538806,36,72.4510869335082,925933.831754088,"2016-6-1"
"54 Alison Road, Randwick NSW 2031",151.2341611,-33.9080734,49,261.251953750658,381871.141314149,"2016-6-1"
"115 Heathcote Rd, Wattle Grove NSW 2173",150.9472453,-33.9466181,24,1165.76959471211,22920499.8859479,"2016-6-1"
"1181 The Horsley Drive, Wetherill Park NSW 2164",150.9010633,-33.8496416,30,440.874874072619,2421333.87149727,"2016-6-1"
"665-671 Warringah Rd (Cnr Cook St), Forestville NSW 2087",151.2186119,-33.7603227,18,393.348196912387,6085008.41567564,"2016-6-1"
"241 Waterworth Drive, Mount Annan NSW 2567",150.7602696,-34.0494309,14,292.127953164401,8856962.65759575,"2016-6-1"
"746-752 Richmond Road, Berkshire Park NSW 2765",150.7997035,-33.6645868,5,247.041789041443,11582919.3137718,"2016-6-1"
"61-63 Cowper Wharf Rd (Cnr Dowling St), Woolloomooloo NSW 2011",151.2213098,-33.8696027,40,1221.04688819116,6723805.76921511,"2016-6-1"
"130 Cormorant Rd (Po Box 222), Kooragang NSW 2304",151.7634837,-32.8825364,20,1980.18859768447,44259143.8699853,"2016-6-1"
"73 Pembroke Rd (Cnr Durham St), Minto NSW 2566",150.8502626,-34.0230315,20,968.282372882459,3401910.65981808,"2016-6-1"
"386 Pennant Hills Rd, Pennant Hills NSW 2120",151.0680594,-33.7392914,21,521.822383879387,3066165.60997081,"2016-6-1"
"137-141 Kingsgrove Road, Kingsgrove NSW 2208",151.0990859,-33.9327847,73,771.994035071147,1276994.93973929,"2016-6-1"
"227 Military Rd, Cremorne NSW 2090",151.226498,-33.8303101,16,483.91027753977,782690.968295336,"2016-6-1"
"832 Bringelly Road, Rossmore NSW 2557",150.7701315,-33.9454067,4,4804.85706599917,58324208.9393982,"2016-6-1"
"21 Ryde Rd, Pymble NSW 2073",151.1439048,-33.7519745,20,1812.83286950023,5102012.56478024,"2016-6-1"
"294 Princess Hwy, Carss Park NSW 2221",151.11782,-33.9820023,49,205.076741772169,621528.457783073,"2016-6-1"
"678 The Horsley Drv (Cnr Cumberland Hwy), Smithfield NSW 2164",150.9400217,-33.8537341,55,368.201071511607,548240.231614828,"2016-6-1"
"38-46 Victoria Rd, Drummoyne NSW 2047",151.1593072,-33.8557588,43,46.556202823691,1351203.60606301,"2016-6-1"
"269-275 Princes Highway, Corrimal NSW 2518",150.8963512,-34.3751906,20,47.6882936431145,358983.39008975,"2016-6-1"
"93-99 Argyle Street, Picton NSW 2571",150.6115448,-34.1685559,3,2242.89314211624,66478950.4398465,"2016-6-1"
"575-581 Great Western Highway, Faulconbridge NSW 2776",150.5374614,-33.6941786,4,966.111028915557,131515112.607309,"2016-6-1"
"277-281 Princes Highway, Carlton NSW 2218",151.1272728,-33.9748579,46,101.653298009247,500157.920516821,"2016-6-1"
"835 King Georges Road, South Hurstville NSW 2221",151.1054985,-33.9785931,52,130.571005449554,553313.537632346,"2016-6-1"
"630-634 Liverpool Road, Strathfield South NSW 2136",151.0711346,-33.88688,60,254.412195843626,1902532.89063314,"2016-6-1"
"152-158 Princes Hwy, Dapto NSW 2530",150.7923242,-34.4961776,5,599.100468094766,121105057.881008,"2016-6-1"
"88 Victoria Rd (Cnr Buller St), Parramatta NSW 2150",151.0153888,-33.8087395,48,996.603549902219,2202483.52904621,"2016-6-1"
"616-626 Willoughby Rd (Cnr Penkivil St), Willoughby NSW 2068",151.1989154,-33.8058962,32,474.610425361487,2010151.09759393,"2016-6-1"
"2-6 General Holmes Drive, Brighton-Le-Sands NSW 2216",151.1575677,-33.9579238,44,467.018708688329,4630268.48282182,"2016-6-1"
"48-56 Gardeners Road, Kingsford NSW 2032",151.2257041,-33.9250188,49,607.189368185561,1801716.20607433,"2016-6-1"
"100 Princes Hwy Cnr Browns Rd, South Nowra NSW 2541",150.6029515,-34.9051689,8,1167.55090031537,13670101.9825535,"2016-6-1"
"427 Bungarribee Road, Doonside NSW 2767",150.8762699,-33.7729236,32,1029.06523358129,3029780.2611851,"2016-6-1"
"398 Merrylands Rd (Cnr Fowler Rd), Merrylands NSW 2160",150.9775544,-33.8342601,54,715.900994187553,1409052.42623055,"2016-6-1"
"111 Berowra Waters Rd, BEROWRA HEIGHTS NSW 2082",151.1416419,-33.6155463,5,30.1759966894111,50024412.145736,"2016-6-1"
"9-11 Roberts Road, Greenacre NSW 2190",151.0667049,-33.8943463,66,225.965581320613,488926.454005569,"2016-6-1"
"369-371 Pennant Hills Rd, Pennant Hills NSW 2120",151.073646,-33.7387005,22,521.822383879387,4081911.15279174,"2016-6-1"
"139 Great Western Highway (Corner Layton Avenue), Blaxland NSW 2774",150.6098266,-33.7441113,8,151.62187651131,28093062.9862304,"2016-6-1"
"157 Penshurst street, Willoughby NSW 2068",151.1981429,-33.7980338,37,512.210149393522,1816863.05771798,"2016-6-1"
"43 Panmure Rd (Cnr Windsor Road), Rouse Hill NSW 2155",150.9163622,-33.6828426,10,2141.36434231088,18630293.0272732,"2016-6-1"
"Mulgoa Road & Wolseley Road, Jamisontown NSW 2750",150.6543287,-33.806537,4,2282.78191719685,30039303.3492093,"2016-6-1"
"96 Wicks Road, North Ryde NSW 2113",151.1267945,-33.794141,37,512.087386631357,599010.739935786,"2016-6-1"
"612 Forest Road, Penshurst NSW 2222",151.0792275,-33.961504,58,942.455633057577,1432854.25256822,"2016-6-1"
"22 Stanmore Road (Corner Fotheringham Street), Enmore NSW 2042",151.1698906,-33.8992721,68,600.902435595484,745161.941693425,"2016-6-1"
"231-235 Great North Road, Five Dock NSW 2046",151.1300026,-33.8648839,54,591.188230853797,2915887.20141554,"2016-6-1"
"12 Hawkesbury Valley Way, Windsor NSW 2756",150.8122158,-33.6117931,8,1235.12185190534,7801219.75249834,"2016-6-1"
"286-288 Pennant Hills Rd (Cnr Adderton Rd), Carlingford NSW 2118",151.0435789,-33.7848985,30,290.320320787484,1060401.53490705,"2016-6-1"
"118 Coxs Road, North Ryde NSW 2113",151.1303335,-33.8014883,40,878.379608053509,3668824.57236296,"2016-6-1"
"Weakleys Dr Cnr Balook Dr, Beresfield North NSW 2322",151.6340839,-32.8027696,10,839.939048869821,1489034.96674091,"2016-6-1"
"2-4 Kippax St, Greystanes NSW 2145",150.9379245,-33.8279127,38,1646.85362429426,6552475.37578395,"2016-6-1"
"450 Great Western Hw, Faulconbridge NSW 2776",150.5478807,-33.6942982,5,966.111028915557,26562285.4725136,"2016-6-1"
"2140 The Northern Rd, Luddenham NSW 2745",150.6934291,-33.8834438,2,1084.30887548072,59191089.7099898,"2016-6-1"
"162 Maitland Rd, Sandgate NSW 2304",151.7061704,-32.8650429,19,1053.78525057443,9659236.27129841,"2016-6-1"
"97-99 Wattle Road, Jannali NSW 2226",151.0674171,-34.0167138,18,1649.8714669751,7051286.36981055,"2016-6-1"
"65 Kenyons Road, Merrylands West NSW 2160",150.968495,-33.8367807,59,470.213962023409,684491.083930969,"2016-6-1"
"126 Chapel Rd South, Bankstown NSW 2200",151.0298158,-33.9278698,62,1057.36743167376,2331143.82179365,"2016-6-1"
"110 Anzac Parade & Goodwood Street, Kensington NSW 2033",151.2239719,-33.9072534,51,348.569540730867,876659.021039099,"2016-6-1"
"238 Pacific Highway, Lindfield NSW 2070",151.1690654,-33.7788867,33,1253.55186267589,3978994.5786556,"2016-6-1"
"44 Hume Highway & Knight Street, Lansvale South NSW 2166",150.9643816,-33.8929219,58,347.026821750577,1839710.6105239,"2016-6-1"
"138-142 Princes Highway, ALBION PARK RAIL NSW 2527",150.7935812,-34.5589879,13,311.429597806057,1150907.21893182,"2016-6-1"
"102 Heathcote Road, Moorebank NSW 2170",150.9396459,-33.9382311,28,435.832670228933,1540363.05955331,"2016-6-1"
"735 George Street, Bligh Park NSW 2756",150.7838938,-33.6364679,11,248.313836561424,7162639.86419392,"2016-6-1"
"494 Pacific Hwy, Killara NSW 2071",151.1605034,-33.7701345,33,69.8708145441056,3409706.94511383,"2016-6-1"
"534 Guildford Road West (Corner Fowler Road), Guildford West NSW 2161",150.9722054,-33.8514558,63,1027.75332119778,2576663.01267201,"2016-6-1"
"307-311 Barrenjoey Road (Corner Seaview Avenue), Newport NSW 2106",151.3181679,-33.6564017,8,207.838313527059,10721444.5403602,"2016-6-1"
"162A Spit Road (Corner Mitchell Road), Mosman NSW 2088",151.2434109,-33.8174658,16,620.253388324331,4400649.9776756,"2016-6-1"
"184 Liverpool Road, Enfield NSW 2136",151.0977821,-33.887232,68,176.781250259607,742032.989069859,"2016-6-1"
"379 Enmore Road, Marrickville NSW 2204",151.167972,-33.9044479,63,387.700493310781,594840.224360526,"2016-6-1"
"128 Barker Street, Randwick NSW 2031",151.2356084,-33.9208814,46,630.307845063175,530130.650657669,"2016-6-1"
"320 Polding Street, Fairfield NSW 2165",150.9469779,-33.8630656,58,627.227025608718,932897.953554273,"2016-6-1"
"45 Spit Road, Mosman NSW 2088",151.2434586,-33.8230576,13,620.253388324331,8657688.33075398,"2016-6-1"
"485 - 487 Smithfield Road, Prairiewood NSW 2176",150.9025867,-33.8711256,45,262.714388240664,2809226.9066453,"2016-6-1"
"131 Anzac Parade & Todman Avenue, Kensington NSW 2033",151.2229186,-33.9102707,50,348.569540730867,814813.143118143,"2016-6-1"
"162 Sunnyholt Rd, Blacktown NSW 2148",150.9151625,-33.7519655,34,160.598220411441,1824820.66430178,"2016-6-1"
"220 Port Hacking Road, Miranda NSW 2228",151.1062757,-34.0280811,25,389.819781858371,2974370.5916272,"2016-6-1"
"61 Brown Road, Bonnyrigg NSW 2177",150.8838647,-33.896933,42,895.297749220347,1868384.46605301,"2016-6-1"
"539 Wilberforce Rd, WILBERFORCE NSW 2756",150.8384028,-33.5630256,7,3118.54270061989,19520456.0272179,"2016-6-1"
"345 Avoca Street, Randwick NSW 2130",151.239829,-33.9253436,42,630.307845063175,NA,"2016-6-1"
"32 Princes Hwy, Arncliffe NSW 2205",151.1521516,-33.9345892,64,51.8859317015358,1436435.62413049,"2016-6-1"
"182 Green Valley Rd, Green Valley NSW 2168",150.8682763,-33.9023921,33,559.390418099479,1652087.54223609,"2016-6-1"
"134-138 New England Hwy, Rutherford NSW 2320",151.5378568,-32.7201409,11,172.006974340693,4065372.221488,"2016-6-1"
"300 New England Highway, Rutherford NSW 2320",151.5251305,-32.7148398,10,940.236856028099,6918911.00007141,"2016-6-1"
"12B Oatley Parade, Oatley NSW 2223",151.0791437,-33.9823281,35,1397.960111698,5208451.33969903,"2016-6-1"
"198 Parramatta Road (Corner Pyrmont Bridge Road), Camperdown NSW 2050",151.1822336,-33.8855798,59,1191.40180871565,2489062.73681486,"2016-6-1"
"192-198 The Kingsway, Woolooware NSW 2230",151.1335659,-34.046334,15,978.512145889408,1346741.64154708,"2016-6-1"
"8 - 10 Crystal Street, Petersham NSW 2049",151.1584302,-33.8887037,64,202.505648403589,609198.543967128,"2016-6-1"
"367 The Kingsway (Corner Willarong Road), Caringbah NSW 2229",151.1203458,-34.0393327,18,801.325897740219,1930585.30908179,"2016-6-1"
"18 Solander Road, Kings Langley NSW 2147",150.9435594,-33.7560684,33,1376.60602048716,4167157.54987818,"2016-6-1"
"327 Eastern Valley Way, Castle Cove NSW 2069",151.2008775,-33.7848737,26,191.809847560503,2101790.80111259,"2016-6-1"
"83 Byamee Street, Dapto NSW 2530",150.7988257,-34.496616,6,599.100468094766,2935236.22676885,"2016-6-1"
"28 Princes Highway, Arncliffe NSW 2205",151.1525355,-33.934248,63,51.8859317015358,1698118.48610544,"2016-6-1"
"99 Railway Street (Corner Frederick Street), Rockdale NSW 2216",151.1356808,-33.9524749,59,764.982489792218,854055.238622822,"2016-6-1"
"Shop 1, 135-137 Popondetta Road, Emerton NSW 2770",150.8102247,-33.7446389,22,1400.88637771955,5029919.08411208,"2016-6-1"
"293 West Botany Street (Corner Bestic Street), Rockdale NSW 2216",151.1484667,-33.9499614,51,786.466041104303,1587470.02378029,"2016-6-1"
"Cnr Russell & Terry Street, Albion Park NSW 2527",148.221353,-35.300041,4,270.855974209526,4642729.26389778,"2016-6-1"
"47 Princes Highway, Fairy Meadow NSW 2519",150.8925364,-34.3939969,24,546.740672857994,1324151.42355716,"2016-6-1"
"222 King Georges Rd (Cnr Canarys Rd) (Opn 30/6/16), Lakemba NSW 2195",151.0736108,-33.9336163,64,65.2937330892293,1023136.15047807,"2016-6-1"
"792-794 Canterbury Road Chapel Street, Belmore NSW 2192",151.0872585,-33.925657,78,894.463320354697,1067482.5260309,"2016-6-1"
"736 Princes Highway & President Avenue, Kogarah NSW 2217",151.1375866,-33.9641162,49,105.767237377585,329065.439972878,"2016-6-1"
"291 Rooty Hill Road North, Plumpton NSW 2761",150.8404348,-33.7535721,21,1136.81022518614,4308165.62796612,"2016-6-1"
"261-265 Princes Highway, Bulli NSW 2516",150.9132751,-34.335641,12,145.754643595777,11056146.1548634,"2016-6-1"
"275-277 Princes Highway, Corrimal NSW 2518",150.8960047,-34.3755104,20,47.6882936431145,1910686.62447286,"2016-6-1"
"273 Parramatta Rd, Haberfield NSW 2045",151.1287355,-33.8750322,57,224.204937036261,525335.371320695,"2016-6-1"
"411-417 Clenveland St, Redfern NSW 2016",151.213301,-33.8918474,52,266.65165951601,831887.454770297,"2016-6-1"
"242 Parramatta Road, Homebush NSW 2140",151.0764052,-33.8617091,47,584.495290584174,1970487.83915323,"2016-6-1"
"281 Hawkesbury Rd, Winmalee NSW 2777",150.5997763,-33.6823561,3,2723.1605380634,64960512.3147449,"2016-6-1"
"69 Richmond Road, Blacktown NSW 2148",150.9024452,-33.7638661,37,524.220380512711,1305909.4271065,"2016-6-1"
"69 Hoxton Park Road, Liverpool NSW 2170",150.9107378,-33.9270784,44,438.793736677524,648938.778102607,"2016-6-1"
"651 Princes Highway, Rockdale NSW 2216",151.1377014,-33.9591628,52,453.991329490315,624405.532486528,"2016-6-1"
"948-950 Canterbury Rd, Roselands NSW 2196",151.0780977,-33.9282478,77,682.035393308086,813006.447673559,"2016-6-1"
"20 Burwood Rd, Concord NSW 2137",151.1053364,-33.86754,50,383.983781092384,2198603.79572694,"2016-6-1"
"387 New England Highway, Rutherford NSW 2320",151.5075349,-32.7079834,8,894.233902140429,10750119.8325595,"2016-6-1"
"32-36 Woodpark Rd, Woodpark NSW 2164",150.9633347,-33.8410479,59,672.427868432933,1407672.41178897,"2016-6-1"
"125 Princes Highway & Fowles Road, Dapto NSW 2530",150.8017934,-34.748284,3,1456.35072761854,87318735.8967435,"2016-6-1"
"138-146 Princes Highway, Corrimal NSW 2518",150.8977366,-34.369918,17,598.605381689009,2202856.87902504,"2016-6-1"
"162 - 166 Pioneer Road, Towradgi NSW 2518",150.9064844,-34.3841162,19,272.784536768881,7179654.63424259,"2016-6-1"
"Lot 1 Ben Lomond Road, Minto NSW 2566",150.850265,-34.0322558,23,226.445433612159,10506382.4051089,"2016-6-1"
"575-585 Liverpool Road, Strathfield South NSW 2136",151.073798,-33.8874517,63,103.905794773671,660755.386367857,"2016-6-1"
"45 Georges River Road, Croydon Park NSW 2133",151.1114344,-33.8943808,72,611.030989765553,1314339.93828442,"2016-6-1"
"Corner Hoxton Park & Websters Roads, Lurnea NSW 2170",150.8569347,-33.9270472,28,762.330341993658,2178093.9423808,"2016-6-1"
"110 Gymea Bay Rd (Cnr 337-339 President Avenue), Gymea NSW 2227",151.0848847,-34.0373199,21,491.110005933203,10745326.0960519,"2016-6-1"
"924 Victoria Rd, WEST RYDE NSW 2114",151.0934931,-33.8109474,30,99.8610343288031,498551.222110868,"2016-6-1"
"99 Balgownie Road, Balgownie NSW 2519",150.880854,-34.3892562,25,1196.10587199446,46838696.2709012,"2016-6-1"
"919 Victoria Road (Corner Hermitage Road), West Ryde NSW 2114",151.093208,-33.8091796,30,152.099977734838,397726.525170565,"2016-6-1"
"326-328 Blaxland Road, Ryde NSW 2112",151.1003356,-33.8025134,29,777.170477814306,1130725.06938994,"2016-6-1"
"90 Blacktown Road, Blacktown NSW 2148",150.9200236,-33.7790132,40,429.320038781016,1617561.62544769,"2016-6-1"
"274 Georges River Rd, Croydon Park NSW 2233",151.1031893,-33.8968278,77,200.03897973343,1631455.77829999,"2016-6-1"
"1443 Elizabeth Drive, Kemps Creek NSW 2178",150.791629,-33.879602,5,253.151574927065,2148399.47650683,"2016-6-1"
"155 Pennant Hills Rd, Normanhurst NSW 2076",151.0900699,-33.7245245,19,471.080380285484,3353013.53458405,"2016-6-1"
"22 Charlotte Street, Ashfield NSW 2131",151.1256877,-33.886463,68,582.303510584804,783337.839447021,"2016-6-1"
"301-305 Hume Highway & Boronia Road, Greenacre NSW 2190",151.0418969,-33.905108,64,564.713318327233,1537237.65074602,"2016-6-1"
"896A Woodville Rd, Villawood NSW 2163",150.9760272,-33.8838909,58,709.852041078271,1663720.67725265,"2016-6-1"
"119 Towradgi Road, Towradgi NSW 2518",150.9035258,-34.3842912,19,272.784536768881,955421.669375896,"2016-6-1"
"90-92 Great Western Highway, Medlow Bath NSW 2780",150.2823142,-33.6786016,5,3886.28282669042,266288282.112397,"2016-6-1"
"Remembrance Driveway, Tahmoor NSW 2790",150.5815751,-34.2344023,6,1188.17817808211,17537376.2257061,"2016-6-1"
"618 Punchbowl Rd, Wiley Park NSW 2195",151.0663547,-33.9167729,66,302.749080634448,459092.248159342,"2016-6-1"
"1 Meagher Ave (Cnr Malabar Rd) (Repn 9 June'16), Maroubra NSW 2035",151.2490398,-33.9512657,22,778.435560021182,NA,"2016-6-1"
"941-953 Burke Road, Waterloo NSW 2147",151.2082286,-33.9019095,58,569.608070715518,1095160.7759206,"2016-6-1"
"67-69 Hawkesbury Rd, Westmead NSW 2145",150.98571,-33.8133464,48,747.101298368788,2126745.36128017,"2016-6-1"
"1465-1467 Elizabeth Drive, Kemps Creek NSW 2178",150.7889329,-33.8792121,4,253.151574927065,26820617.8260881,"2016-6-1"
"522 Smithfield Road, Prairiewood NSW 2176",150.9000775,-33.8722342,45,262.714388240664,1480190.01392388,"2016-6-1"
"515 Bunnerong Road, Matraville NSW 2036",151.231733,-33.9594188,24,158.581403488403,NA,"2016-6-1"
"38 John St, The Oaks NSW 2570",150.5704336,-34.0801266,2,2994.64568880422,97726822.0788346,"2016-6-1"
"42 Lawrence Hargrave, Austinmer NSW 2515",150.9388366,-34.3004516,4,2013.00168227075,78589297.639626,"2016-6-1"
"67 Old Bathurst Road, East Blaxland NSW 2774",150.6224825,-33.7460178,9,1073.34341374209,9180516.58962142,"2016-6-1"
"862 Hume Highway, Bass Hill NSW 2197",150.9990874,-33.9010513,50,223.344126557506,2213118.76487465,"2016-6-1"
"965-969 Pacific Highway (Corner Waratah Road), Berowra NSW 2081",151.1479171,-33.6267315,5,162.926365962714,463368.988355637,"2016-6-1"
"178-184 Victoria Road (Corner Moodie Street), Rozelle NSW 2039",151.1680926,-33.8630048,47,59.0660806148249,1354219.52515602,"2016-6-1"
"464 Cabramatta Road West, Mount Pritchard NSW 2170",150.9129072,-33.8973575,51,62.5115677340401,511438.017816424,"2016-6-1"
"203 Burns Bay Road, Lane Cove NSW 2066",151.1543132,-33.8145745,40,369.207675120136,2127832.48595577,"2016-6-1"
"55 Garfield Road, Riverstone NSW 2765",150.8636981,-33.6779255,7,341.444401458534,7065282.11581135,"2016-6-1"
"1-3 East Parade, Sutherland NSW 2232",151.0575,-34.0301306,15,134.869902703805,4629547.11761713,"2016-6-1"
"439 Princes Highway (Corner Massey Street), Carlton NSW 2218",151.1191584,-33.9805275,48,205.076741772169,897549.09375158,"2016-6-1"
"474 Forest Road, Bexley NSW 2207",151.1251976,-33.9515238,62,619.418526415635,744769.849506214,"2016-6-1"
"400 Parramatta Road, Burwood NSW 2134",151.1014103,-33.8686616,51,207.74856487858,671703.23079874,"2016-6-1"
"987 Hume Highway, Lansdowne NSW 2163",150.9708735,-33.8892764,58,57.1021436654877,1231995.21739912,"2016-6-1"
"21 Abbott St, Gunnedah NSW 2380",150.2561852,-30.9802089,4,118.363436270859,336050431.440385,"2016-6-1"
"295 Forrest Road, Bexley NSW 2207",151.1283492,-33.9444759,66,230.115203943392,1092285.13609902,"2016-6-1"
"Cnr Parramatta & Shaftsbury Rds, Burwood NSW 2134",150.9992393,-33.8175275,51,934.297844440724,1940229.61250633,"2016-6-1"
